cityname,city,organisationID,shortName,lon,lat,n
ABANO TERME,Abano Terme,941149582,Fidia farmaceutici SpA,45.3561685,11.8225417,1
ABBIATEGRASSO,ABBIATEGRASSO,998193439,AUTOMATION SRL,45.3819021,8.9232838,1
ACCADIA,ACCADIA,896386119,NA,42.6384261,12.674297,1
ACERRA,ACERRA NA,940962566,PLC SYSTEM,40.9460532,14.3750083,2
ACQUARICA DEL CAPO,ACQUARICA DEL CAPO,938229106,ASSOCIAZIONE ITALIANA SOLARE TERMICO,39.911119,18.24543,1
AFRAGOLA,AFRAGOLA NA,951005170,COMUNE DI AFRAGOLA,40.92311095,14.3103814224359,1
AGRATE BRIANZA,AGRATE BRIANZA,940695816,FUTURE ENERGY,45.5761735,9.3509475,1
AGRATE BRIANZA,AGRATE BRIANZA,999977657,ST-I,45.5762329,9.3524409,61
AGRATE BRIANZA,AGRATE BRIANZA MB,899702355,LAM,42.6384261,12.674297,1
ALANNO,ALANNO,925497856,TEXOL SRL,42.295438,13.971105,1
ALBA,ALBA,947515207,GRAPE,41.7479062,12.670305062563884,1
ALBA,ALBA,951805323,I&M SRL,44.6892086,8.0373759,16
ALBA,ALBA,986311036,CRCF,46.0921369,9.6182607,2
ALBANO SANT ALESSANDRO,ALBANO SANT'ALESSANDRO (BG),924152854,PRODUTECH,45.688382,9.8022570000000009,2
ALBENGA,ALBENGA SV,985268092,GIARDINO LETTERARIO DELFINO,44.0491414,8.2127631,1
ALBIATE,ALBIATE,913133072,CIA,45.6573443,9.2486324,1
ALBINEA,ALBINEA,908106435,Top Gears,44.6090064,10.6536251,1
ALBINEA,ALBINEA,919085962,OMPI,45.0857485,7.4075744,1
ALBINEA,ALBINEA,936391053,FLEXBIMEC,44.6245207,10.5718581,3
ALBINEA,ALBINEA RE,914168935,GRASSELLI,44.6228926,10.5758684,1
ALBINO,ALBINO,934936635,SINERGIA,45.77902935,9.822241488623094,1
ALBIZZATE,ALBIZZATE,970472488,LAMBERTI,45.727461,8.8064405,1
ALCAMO,ALCAMO,893961895,NA,37.9766497,12.9626735,1
ALESSANDRIA,ALESSANDRIA,890417806,NA,45.446254249999996,12.25519959983486,1
ALESSANDRIA,ALESSANDRIA,910584979,NA,44.92510155,8.625552380190626,1
ALESSANDRIA,ALESSANDRIA,917994809,3iEE,44.917757,8.626137,1
ALESSANDRIA,ALESSANDRIA,997946768,CONSORZIO PER LA PROMOZIONE DELLA CULTURA PLASTICA PROPLAST,44.89666,8.8641282,4
ALESSANDRIA,ALESSANDRIA AL,899537261,NA,39.9561725,18.0849223,1
ALFIANELLO,ALFIANELLO,998795615,AGF,42.6384261,12.674297,1
ALGHERO,ALGHERO,999451917,PCR,40.5600205,8.3151473,1
ALMESE,ALMESE,911766827,AMICO s.c.s.,45.1168763,7.39455,1
ALONTE,Alonte,937369395,Athena,45.3575002,11.4220548,1
ALPAGO,ALPAGO,899164684,FLYTECH SRL,42.6384261,12.674297,1
ALPIGNANO,ALPIGNANO,960472467,SOLBIAN,42.6384261,12.674297,1
ALTAMURA,ALTAMURA,924322604,ECOPLEN srl,40.8283631,16.5523505,1
ALTAVILLA VINCENTINA,ALTAVILLA VINCENTINA,910542008,BRANDOLISIO SRL,40.5302405,15.1310307,1
ALTOPASCHIO,ALTOPASCHIO (LUCCA),951722970,DTECH,43.8150413,10.6743961,3
AMARO,AMARO,988614010,EUROTECH,46.3704995,13.0743182,5
ANAGNI,ANAGNI,925362541,Authometion srl,41.74472,13.152694,1
ANAGNI,ANAGNI,952096226,PLASTIC,41.74472,13.152694,2
ANCONA,Ancona,986264185,ETS,43.573221,13.5088474,1
ANCONA,Ancona,986340233,MARCHE REGION,43.6096885,13.5086026,2
ANCONA,Ancona,998001185,AUH,43.6039436,13.4530795,2
ANCONA,ANCONA,896533268,NA,43.61716225,13.364858030368092,1
ANCONA,ANCONA,898509546,Mashcream,43.61716225,13.364858030368092,1
ANCONA,ANCONA,900762662,Emoj,43.61716225,13.364858030368092,1
ANCONA,ANCONA,903746188,CHAMBER OF COMMERCE INDUSTRY CRAFTSAND AGRICULTURE OF MARCHE,41.124048,16.8749341,4
ANCONA,ANCONA,925596408,ASUR,43.5744496,13.507266,1
ANCONA,ANCONA,939736292,GreenTech,43.6170137,13.5170982,1
ANCONA,ANCONA,949284196,S.TRA.TE.G.I.E. SRL,43.61716225,13.364858030368092,1
ANCONA,ANCONA,954441880,ECOREACH,43.6171472,13.513779,1
ANCONA,ANCONA,986340039,SVIM,43.3368307,12.905236500000001,2
ANCONA,ANCONA,997991388,ANCONA,43.6170137,13.5170982,3
ANCONA,ANCONA,999630882,INRCA,43.4486302,13.3977628,6
ANCONA,ANCONA,999631464,COOSS,43.5963936,13.326004,4
ANCONA,ANCONA,999866689,UNIVPM,43.6172271,13.5130433,64
ANCONA,ANCONA AN,899774038,Conerobus S.p.A.,43.61716225,13.364858030368092,1
ANCONA,ANCONA AN,964538416,NA,43.61716225,13.364858030368092,1
ANDRETTA,ANDRETTA,912046672,PAGITA,40.9369404,15.3264889,1
ANGELI DI ROSORA,Angeli di Rosora (AN),991209924,AEA,43.480779,13.0796626,4
ANGERA,ANGERA,911043013,Tekna Srl,45.7735278,8.592321,1
ANGRI,ANGRI,895967176,NA,40.7367987,14.5803395,1
ANGRI,ANGRI,917010453,METITALIA,40.7376788,14.5722442,5
ANGRI,ANGRI,937334184,O.M.P.M. S.R.L.,43.851644199999996,10.970297530737763,6
ANGRI,ANGRI,952811989,ATP s.r.l.,40.7391141,14.5552594,1
ANGUILLARA SABAZIA,ANGUILLARA SABAZIA,918157284,IBIMI,42.0877173,12.2665638,1
ANNONE DI BRIANZA,ANNONE DI BRIANZA,957516489,ADS,45.8467964,9.3607051,2
ANZOLA DELL EMILIA,ANZOLA DELL'EMILIA,934641367,Crea Solution srl,44.5404983,11.2157872,1
ANZOLA DELL EMILIA,ANZOLA DELL EMILIA,938074488,LabServices,42.6384261,12.674297,2
AOSTA,AOSTA,930493938,REGION AUTONOME VALLEE D'AOSTE,45.7370885,7.3196649,1
APIRO,APIRO,903954156,ARCA,42.6384261,12.674297,1
APPIANO GENTILE,APPIANO GENTILE,998307220,SAATI,45.728365,8.9829102,1
APPIGNANO DEL TRONTO,APPIGNANO DEL TRONTO,913409619,comune di Appignano Del Tronto,44.5768027,10.847179,1
APRILIA,APRILIA,906293408,CSSP,41.5941329,12.6456956,1
APRILIA,APRILIA,911832496,Aero Sekur,41.5914745,12.6366035,1
APRILIA,APRILIA,938969701,SENSICHIPS,42.6384261,12.674297,5
APRILIA,APRILIA,952859131,IBI,42.6384261,12.674297,1
APRILIA,APRILIA LT,998607144,ARESCOSMO,41.5914745,12.6366035,4
APRILIA LATINA,APRILIA LATINA,959840415,MAVI,41.5942016,12.6485765,1
APRILLIA,APRILLIA LT,920720412,I.L.M. SRL,39.241693,16.341796,1
ARCAVACATA DI RENDE,ARCAVACATA DI RENDE,999863391,UNICAL,39.3581137,16.211445,33
ARCO,Arco,937445831,Arcese Trasporti,45.9088964,10.8785844,1
ARCO,ARCO,908834905,TESSILQUATTRO S.P.A.,40.907912,14.386233,1
ARCO,ARCO,920981633,DTSI,42.6384261,12.674297,1
ARCO,ARCO TN,907273205,AquafilITA,45.9180319,10.8860765,2
ARCORE,ARCORE,901602585,REYS,42.6384261,12.674297,1
ARESE,ARESE - MI,907807093,SELT,45.532437349999995,9.09183471647403,1
ARESE,ARESE MI,937133879,ITALMATCH,45.532437349999995,9.09183471647403,1
AREZZO,Arezzo,939730957,Associazione Chimica Verde Bionet,43.4584667,11.8883632,1
AREZZO,AREZZO,905507514,NA,43.4609557,11.8361749,2
AREZZO,AREZZO,908192571,GGP,42.6384261,12.674297,1
AREZZO,AREZZO,918074737,PLS,42.6384261,12.674297,1
AREZZO,AREZZO,935361495,IRTAL-LPMRI-SRL,43.4640246,11.8604618783394,1
AREZZO,AREZZO,936075512,Eltos S.p.A.,42.6384261,12.674297,2
AREZZO,AREZZO,936913010,Rete Geotermica,43.4609557,11.8361749,1
AREZZO,AREZZO,941693170,SECO SRL,45.5337294,9.1433283,2
AREZZO,AREZZO,970926448,TIEMME,42.6384261,12.674297,2
AREZZO,AREZZO,973820443,OXFAM ITALIA,42.6384261,12.674297,4
ARGELATO,ARGELATO,894303432,NA,44.606896199999994,11.36587177374258,1
ARIANO IRPINO,ARIANO IRPINO,918599216,Unfraud,41.1526668,15.0885633,1
ARICCIA,ARICCIA,935451123,CRGT,41.7206529,12.6703487,2
ARICCIA,ARICCIA,941917725,MLAB,41.720709,12.6713481,1
ARLUNO,ARLUNO,912341455,Linde Gas Italia,42.6384261,12.674297,1
ARNESANO,ARNESANO,929957722,NA,42.6384261,12.674297,1
ARNESANO,Arnesano (Lecce),941311087,HIQ,40.3351996,18.0916278,3
ARONA,ARONA,931752901,SPIG SPA,45.7610108,8.5606365,1
ARONA,ARONA NO,985608465,Thurckon,45.7529496,8.5466017,1
ARZIGNANO,ARZIGNANO,901510144,SPAC SPA,42.6384261,12.674297,3
ARZIGNANO,ARZIGNANO,915397149,GSME,42.6384261,12.674297,2
ARZIGNANO,ARZIGNANO,942745232,ULSS N 5,45.5229521,11.3302933,1
ASCOLI PICENO,ASCOLI PICENO,934249875,LINFA,42.8834204,13.539593040686007,1
ASCOLI PICENO,ASCOLI PICENO,938700235,CONSUL SYSTEM SPA,42.8546185,13.5755038,1
ASOLO,ASOLO,908546136,SKI BOOTS PRODUCTION AND SALES,45.7736044,11.9330093,1
ASOLO,ASOLO,914816119,"Alpinestars S.p,A",45.7821208,11.9103668,1
ASSAGO,ASSAGO MI,910357417,UPSURGEON,45.4667971,9.1904984,2
ASSAGO,ASSAGO MI,917971044,INTEL,45.4053966,9.1313547,1
ASSAGO,ASSAGO MI,954016341,AZCOM,45.3689421,9.1131628,2
ASSAGO,ASSAGO MI,986240420,Sintea Plustek,45.4019904,9.1227191,2
ASTI,ASTI,914800696,PIAM,46.1406415,8.4585757,1
ASTI,ASTI,915505401,MARPI,44.9043689,8.2034375,1
ASTI,ASTI AT,950720572,LAMORO,44.9022397,8.2071723,1
ATRIPALDA,ATRIPALDA,893345169,RADICI MASTROBERARDINO SOCIETA AGRICOLA SRL RADICI SOCIETA AGRICOLA,42.6384261,12.674297,2
AVELLINO,AVELLINO,893868484,ASL AV,42.6384261,12.674297,1
AVELLINO,AVELLINO,899386523,NA,40.934762899999996,14.821095265923262,1
AVELLINO,AVELLINO,916122903,TL,40.9164397,14.7796412,1
AVELLINO,AVELLINO,917828745,NA,40.9965446,15.1405690365004,1
AVELLINO,AVELLINO,951532268,"NAF",42.6384261,12.674297,1
AVELLINO,AVELLINO,972174450,REDAM,40.9141958,14.7888764,2
AVELLINO,AVELLINO,984574154,ITSYS,40.9155233,14.7798283,5
AVERSA,AVERSA CE,959646415,AER,40.973212,14.204928,8
AVEZZANO,AVEZZANO,920667935,LFSI,42.0334486,13.4265672,1
AVEZZANO,AVEZZANO AQ,965904273,LFO,41.9967628,13.4257798,6
AVIANO,AVIANO,904296760,Gees Recycling,42.6384261,12.674297,1
AVIANO,AVIANO PN,989442002,CRO AVIANO,46.0685438,12.5891138,3
AYMAVILLES,AYMAVILLES,951031069,CERVIM,42.6384261,12.674297,1
BADIA A SETTIMO,BADIA A SETTIMO,951927834,CSO,43.7738814,11.1399921,2
BAGNI DI LUCCA,BAGNI DI LUCCA,898373455,Canetis S.R.L.,44.0099818,10.590633,2
BAGNO A RIPOLI,BAGNO A RIPOLI,945597129,B&C Speakers S.p.A.,43.7793705,11.3617985,1
BAGNOLO SAN VITO,BAGNOLO SAN VITO,912129413,EXTREMA,45.0873312,10.8626889,1
BARANZATE MILANO,BARANZATE MILANO,958976339,LPE,45.534249,9.1091626,4
BARDELLO,BARDELLO VA,943488737,ONO,45.8345547,8.6980092,1
BARI,Bari,941376077,EIPLI,41.1156334,16.8917393,1
BARI,Bari,950829406,EKA,41.1201244,16.861332,3
BARI,BARI,892329094,NA,40.7591006,17.3201234,1
BARI,BARI,898860201,APPO - THE ORGANISATION OF OLIVES GROWERS-JOINT FARMING COMPANY,41.084921,16.865166,1
BARI,BARI,907391060,INNO,41.098380750000004,16.850377063389423,1
BARI,BARI,909540677,AQP SPA,41.123145,16.8724883,1
BARI,BARI,915976530,IDEA75,41.1105408,16.8752509,3
BARI,BARI,921221223,METROPOLITAN CITY OF BARI,41.13755275,16.762614874530705,1
BARI,BARI,933982058,INT,41.1158634,16.8911562,1
BARI,BARI,938117265,Upgrading Services S.p.A.,41.1257843,16.8620293,1
BARI,BARI,939827375,LegaCoop Puglia,41.1172194,16.8729146,1
BARI,BARI,940232059,CRSFA,41.13755275,16.762614874530705,3
BARI,BARI,945850687,ENERGY@WORK,41.1190126,16.8866439,7
BARI,BARI,949694118,MEDISDIH SCARL,41.13755275,16.762614874530705,1
BARI,BARI,951003618,AReSS PUGLIA,41.13755275,16.762614874530705,3
BARI,BARI,960778308,ARPAPUGLIA,41.1173987,16.8925469,1
BARI,BARI,961298422,ARTI,41.1257843,16.8620293,2
BARI,BARI,969352429,COISPA,40.7818799,17.2370805,2
BARI,BARI,984618483,AOU,41.1122564,16.862990943418502,1
BARI,BARI,988316026,IRCCS-BARI,41.1119087,16.8628237,3
BARI,BARI,998881363,PLANETEK,41.1380601,16.8445936,8
BARI,BARI,999431159,POLIBA,41.1123208,16.8824395,16
BARI,BARI,999523503,RegPuglia,41.1207528,16.8844033,4
BARI,BARI,999640679,BARI,41.1257843,16.8620293,3
BARI,BARI,999717018,CVBF,45.1837953,9.158772,7
BARI,BARI,999840596,UNIBA,41.1257843,16.8620293,33
BARI,BARI,999935656,UNIONE REGIONALE DELLE CAMERE DI COMMERCIO DELLA PUGLIA,41.1186887,16.8709466,5
BARI,BARI BA,897538673,Mindesk,41.13755275,16.762614874530705,1
BARI,BARI BA,941390724,AEROPORTI DI PUGLIA  S.p.A.,41.1357266,16.7729318,2
BAROLO,BAROLO,988638066,Terre,42.1913787,14.2214633,1
BARONISSI,BARONISSI,948687840,G4L,40.7469385,14.7699874,2
BARZIO,BARZIO LC,924017636,CONAIBO,45.94218735,9.45336750142653,1
BASOVIZZA,"BASOVIZZA, TRIESTE",999470444,ICGEB SA,45.641679,13.8632075,4
BASOVIZZA TRIESTE,BASOVIZZA TRIESTE,999589851,ELETTRA,45.641679,13.8632075,23
BASSANO DEL GRAPPA,BASSANO DEL GRAPPA,930064034,Cibas S.a.s.,45.7669109,11.7343469,1
BASSANO DEL GRAPPA,BASSANO DEL GRAPPA,951339820,BAS,45.7669109,11.7343469,1
BASSANO DEL GRAPPA,BASSANO DEL GRAPPA VI,953522611,ETRA,45.7648932,11.7400333,2
BASSANO DEL GRAPPA,BASSANO DEL GRAPPA VI,998738385,QASCOM,45.7669109,11.7343469,4
BASTIA UMBRA,BASTIA UMBRA PG,921124708,DONDI,43.0740487,12.516142,1
BAUCINA,BAUCINA PA,915487941,AS.A.R.,37.9245019,13.5388011,1
BELPASSO,BELPASSO,937267448,ATS,37.5891869,14.9782386,1
BELVEDERE MARITTIMO,BELVEDERE MARITTIMO (CS),918373982,NewtVision,42.6384261,12.674297,1
BENETUTTI,BENETUTTI,905346494,MUNICIPALITY OF BENETUTTI,40.4555348,9.1712146,2
BENEVENTO,BENEVENTO,917260422,ASL BN,41.13028715,14.783975586957954,2
BENEVENTO,BENEVENTO,933656429,NA,42.6384261,12.674297,1
BENEVENTO,BENEVENTO,939134504,Eureka,41.1296018,14.7804331,2
BENEVENTO,BENEVENTO,966688421,KES,42.6384261,12.674297,2
BENEVENTO,BENEVENTO,973862444,UNISANNIO,41.1302485,14.7794655230938,8
BENEVENTO,BENEVENTO,986394262,CERICT,42.6384261,12.674297,6
BENTIVOGLIO,BENTIVOGLIO,899722046,MARPOSS SPA,44.5920098,11.3954907,6
BENTIVOGLIO,BENTIVOGLIO,917834565,VBZ,44.6345741,11.4180033,1
BENTIVOGLIO,BENTIVOGLIO,953489340,IBI,44.6345741,11.4180033,1
BENTIVOGLIO,BENTIVOGLIO,996755026,IPBO,44.6345741,11.4180033,1
BERCHIDDA,BERCHIDDA,906298452,NA,42.6384261,12.674297,2
BERGAMO,BERGAMO,891737491,NA,43.92334315,10.902483692214966,1
BERGAMO,BERGAMO,899305722,Spinergy,43.92334315,10.902483692214966,1
BERGAMO,BERGAMO,912514018,VEGEA,45.8838943,11.020332,1
BERGAMO,BERGAMO,912590260,CG,45.6889926,9.678745,1
BERGAMO,BERGAMO,913609245,W2W Solutions,45.9988196,10.0966567,1
BERGAMO,BERGAMO,913746500,IoTty,45.49515685,9.64240844588168,1
BERGAMO,BERGAMO,916768341,CaptiveS,45.6877179,9.4778734,2
BERGAMO,BERGAMO,923869905,RADICI CHIMICA,45.6018823,9.6307609,1
BERGAMO,BERGAMO,928116856,COMUNE DI BERGAMO,45.68079935,9.7188797375067,2
BERGAMO,BERGAMO,931961742,RESEARCH FOUNDATION OSPEDALE MAGGIORE DI BERGAMO,45.699601,9.6527834,4
BERGAMO,BERGAMO,941351245,FOND. ADAPT,45.6956678,9.6636291,1
BERGAMO,BERGAMO,949341329,ITC,45.6798713,9.7307592,7
BERGAMO,BERGAMO,952062761,IMECH,45.6465922,9.5999985,5
BERGAMO,BERGAMO,952181004,SERVIZI,45.8899623,9.9481813,1
BERGAMO,BERGAMO,952863205,ODL,45.7073259,9.7309896,1
BERGAMO,BERGAMO,986531032,OROBIX,45.6971699,9.6764231,3
BERGAMO,BERGAMO,990525880,CONFINDUSTRIA BERGAMO,45.6466446,9.5990507,1
BERGAMO,BERGAMO,997487376,BER,45.6945115,9.669839,4
BERGAMO,BERGAMO,998819574,CTG,45.6952196,9.6727687,1
BERGAMO,BERGAMO,999595380,UNIBG,45.7044703,9.6607228,12
BERGAMO,BERGAMO BG,913908490,NA,43.92334315,10.902483692214966,1
BERTINORO,BERTINORO,935166525,CEUB.SOC.CONS.ARL,44.1490587,12.1322692,1
BIBBIANO,BIBBIANO,911075896,OLMEDO,44.6634303,10.4727188,1
BIBBIANO,BIBBIANO,916897739,COOPBOX,44.655346,10.4676098,1
BIBBIANO,BIBBIANO,933631500,GAMMA MECCANICA,44.6662457,10.5072762,1
BIBBIENA,BIBBIENA,936601252,CEG SPA,43.695547500000004,11.817341,1
BIELLA,Biella,951359123,IDEAL,45.5652298,8.0578277,5
BIELLA,BIELLA,928864241,FEET,45.5683619,8.0586663,1
BIELLA,BIELLA,930191492,DPIXEL,45.6870732,8.2473995,2
BIELLA,BIELLA,939710684,Città Studi S.p.A.,45.5536626,8.0329347,2
BIELLA,BIELLA,949742909,Dpixel Srl,45.6870732,8.2473995,1
BIELLA,BIELLA,998361443,M&F,45.5519089,8.0434644,1
BIENTINA,BIENTINA,957940379,GFIBRA,45.0863784,7.6995327,1
BITTI,BITTI,891683947,PNRT,40.476344,9.3861354,1
BOGLIASCO,BOGLIASCO,942410970,ABO DATA SRL,44.377083,9.0763491,2
BOJANO,BOJANO CB,935896159,Sensor ID Srl,41.485724,14.472927,1
BOLGARE,BOLGARE,900650336,NA,42.6384261,12.674297,1
BOLGARE,BOLGARE BG,905185765,MARLEGNO,42.6384261,12.674297,1
BOLLATE,BOLLATE MI,999932455,SOLVAY SPPI,45.543835,9.1177075,6
BOLOGNA,Bologna,888895450,NA,44.5344604,11.28849585005122,1
BOLOGNA,Bologna,927687728,Tuotempo SRL,44.5385013,11.5346467,1
BOLOGNA,Bologna,942157024,OPPURE UGF,44.5138914,11.3593959,3
BOLOGNA,Bologna,972752473,S.I.S.Me.R. S.r.l.,44.49032975,11.360594217399495,1
BOLOGNA,BOLOGNA,891318742,NA,44.4963906,11.330578197644382,1
BOLOGNA,BOLOGNA,891685305,FAIRBNB.COOP,44.5133718,11.3618382,1
BOLOGNA,BOLOGNA,893705427,NA,44.5372228,11.2686671,1
BOLOGNA,BOLOGNA,897946655,ABD,44.5221771,11.3384793,3
BOLOGNA,BOLOGNA,898195363,ARCHIBO,44.4892657,11.3192289,1
BOLOGNA,BOLOGNA,900077260,CLUST-ER MECCATRONICA E MOTORISTICA,45.14009215,7.773184083902604,1
BOLOGNA,BOLOGNA,902190502,Confindustria Emilia Area Centro,44.4885583,11.3457856,1
BOLOGNA,BOLOGNA,903031783,BI-REX- BIG DATA INNOVATION & RESEARCH EXCELLENCE,44.5087827,11.3074435,2
BOLOGNA,BOLOGNA,903762872,INKODE,44.5100256,11.4114256,1
BOLOGNA,BOLOGNA,904751593,NA,44.5296755,11.2942436,1
BOLOGNA,BOLOGNA,906211055,PLV Srl,44.1166766,8.2430979,1
BOLOGNA,BOLOGNA,907510079,COMUNICAMENTE,44.4755681,11.3751713,3
BOLOGNA,BOLOGNA,907913114,AW,45.5236522,9.213317,1
BOLOGNA,BOLOGNA,908323424,CUBBIT SRL,44.4950576,11.3402465,3
BOLOGNA,BOLOGNA,908988165,ARV,44.5235549,11.2654932,1
BOLOGNA,BOLOGNA,910704483,3CiME Tech.,44.5197774,11.3486367,1
BOLOGNA,BOLOGNA,911582430,Kerline,45.4525989,7.8804171,1
BOLOGNA,BOLOGNA,911667596,INNOVA,44.510487,11.3571788,1
BOLOGNA,BOLOGNA,912406445,NA,45.4835174,9.1803112,7
BOLOGNA,BOLOGNA,913030931,LUNA,45.6809018,8.6485711,1
BOLOGNA,BOLOGNA,914399116,ARETE',44.4936714,11.3430347,1
BOLOGNA,BOLOGNA,915981768,NA,44.4913152,11.3445995,1
BOLOGNA,BOLOGNA,916207681,WM,44.5143785,11.4075967,1
BOLOGNA,BOLOGNA,917558794,ALFA,44.5517317,11.2714609,1
BOLOGNA,BOLOGNA,917767441,MAC DUE SRL,44.5043855,11.4252967,1
BOLOGNA,BOLOGNA,917823119,BTL,44.5117513,11.278358541940634,1
BOLOGNA,BOLOGNA,918269513,REJOINT,44.4991909,11.360178,1
BOLOGNA,BOLOGNA,918797193,Bioridis srl,44.4867121,11.3445662,1
BOLOGNA,BOLOGNA,918955982,GRADEMI,44.4936714,11.3430347,1
BOLOGNA,BOLOGNA,919203235,LINK  2.0,44.4936714,11.3430347,1
BOLOGNA,BOLOGNA,920567346,CRIF SPA,44.5127888,11.3304435,3
BOLOGNA,BOLOGNA,921911475,AQRATE,44.5519579,11.3538045,1
BOLOGNA,BOLOGNA,921948238,NA,44.5019854,11.3395656,1
BOLOGNA,BOLOGNA,922705420,Alma,44.5186617,11.3225863,1
BOLOGNA,BOLOGNA,923788910,FISIM ETS,44.5007158,11.3385627,2
BOLOGNA,BOLOGNA,926255426,Studioemme,44.527522,11.2742659,1
BOLOGNA,BOLOGNA,928945624,ASP CITTA DI BOLOGNA,44.4696946,11.3914812,2
BOLOGNA,BOLOGNA,929374073,BAM!,44.277287,11.588289,1
BOLOGNA,BOLOGNA,929687480,NA,44.4890633,11.3225126,1
BOLOGNA,BOLOGNA,930035904,NA,44.4896015,11.3573736,2
BOLOGNA,BOLOGNA,930803659,DUCATI,44.4936714,11.3430347,2
BOLOGNA,BOLOGNA,933452729,Citta Metropolitana di Bologna,44.4936714,11.3430347,3
BOLOGNA,BOLOGNA,934646217,FG,44.507808600000004,11.306321991901012,1
BOLOGNA,BOLOGNA,934804909,BIO-PRO S.r.l.,44.4885985,11.3769882,1
BOLOGNA,BOLOGNA,935291655,CONFINDUSTRIA EMILIA-ROMAGNA,44.4920386,11.3381429,4
BOLOGNA,BOLOGNA,935419501,GEET,44.4936714,11.3430347,1
BOLOGNA,BOLOGNA,936435479,Pro Gamma S.p.A.,44.4936714,11.3430347,1
BOLOGNA,BOLOGNA,937209151,EXERGY SPA,44.4934332,11.3396668,1
BOLOGNA,BOLOGNA,937288691,Enerray Spa,44.4934332,11.3396668,1
BOLOGNA,BOLOGNA,937463679,CEFA ONLUS,44.5017194,11.3335112,1
BOLOGNA,BOLOGNA,937495301,NMR,44.5072894,11.3004788,1
BOLOGNA,BOLOGNA,937953820,NA,44.4903733,11.3775762,1
BOLOGNA,BOLOGNA,938038792,OPTIT SRL,44.3598271,11.6957582,4
BOLOGNA,BOLOGNA,938077980,Stem Sel srl,44.5143191,11.4075681,1
BOLOGNA,BOLOGNA,938894235,I.I.P.L.E.,44.5335448,11.3691682,2
BOLOGNA,BOLOGNA,938902286,GRAN SUINO ITALIANO,44.4962409,11.3444066,2
BOLOGNA,BOLOGNA,939023342,OPEN,44.5039296,11.3369658,1
BOLOGNA,BOLOGNA,939089108,ANT,44.5205789,11.3534603,1
BOLOGNA,BOLOGNA,940402779,AlmaPlasma,44.4895138,11.3285937,1
BOLOGNA,BOLOGNA,941212632,Italian Resuscitation Council,44.529971,11.3547286,1
BOLOGNA,BOLOGNA,941240859,Agromet,44.4949059,11.3499802,1
BOLOGNA,BOLOGNA,941469973,ECOINNOVAZIONE,45.3773432,11.91477295,6
BOLOGNA,BOLOGNA,941477539,NOWHERE SRL,44.5038476,11.3373713,1
BOLOGNA,BOLOGNA,943782647,CENTRO STUDI PROGETTO DONNA E DIVERSITY MGMT,44.5035515,11.3410564,1
BOLOGNA,BOLOGNA,945462687,CELLPLY SRL,44.4884488,11.3543854,2
BOLOGNA,BOLOGNA,949089129,GNETIX S.A.S.,44.4924912,11.3418975,1
BOLOGNA,BOLOGNA,949772688,STUDIO PEDRINI SRL,44.5326328,11.2685526,1
BOLOGNA,BOLOGNA,951164056,IBACN,44.4984699,11.3423353,2
BOLOGNA,BOLOGNA,951425568,IRCCS ISTITUTO DELLE SCIENZE NEUROLOGICHE,44.4896858,11.3469597,6
BOLOGNA,BOLOGNA,951640132,FEDERUNACOMA,44.4936714,11.3430347,2
BOLOGNA,BOLOGNA,953804493,LEPIDA SPA,44.493374,11.5154281,3
BOLOGNA,BOLOGNA,954021385,SRM,44.4936714,11.3430347,2
BOLOGNA,BOLOGNA,954349633,CCB,44.4988643,11.336868,1
BOLOGNA,BOLOGNA,963144429,Holding Energia Risorse Ambiente,44.4996186,11.3563022,2
BOLOGNA,BOLOGNA,970932365,ENDURA,44.50560025,11.341795833367254,3
BOLOGNA,BOLOGNA,972288425,LIPINUTRAGEN,44.5521626,11.3539377,1
BOLOGNA,BOLOGNA,983886133,ECUBA,43.4724443,13.06751,1
BOLOGNA,BOLOGNA,984212344,MEC,44.5164874,11.3899075,2
BOLOGNA,BOLOGNA,986181444,Assoc Orlando,44.4887318,11.3557354,1
BOLOGNA,BOLOGNA,986590008,FSCIRE,44.4940949,11.3557188,3
BOLOGNA,BOLOGNA,986642000,CENTRO CERAMICO BOLOGNA,44.4760169,11.6306766,1
BOLOGNA,BOLOGNA,991016991,IRCCS AOU BO,44.3692432,11.67639773338288,8
BOLOGNA,BOLOGNA,994189958,CER,44.4936714,11.3430347,3
BOLOGNA,BOLOGNA,996385068,ICOOR,44.3853243,11.3416015,10
BOLOGNA,BOLOGNA,996519122,MAV,44.485922849999994,11.40123206562404,1
BOLOGNA,BOLOGNA,997827749,IR,44.5344604,11.28849585005122,1
BOLOGNA,BOLOGNA,998508495,CYANAGEN,44.4872549,11.4088076,2
BOLOGNA,BOLOGNA,998692989,SCRIBA,44.5298114,11.3532701,7
BOLOGNA,BOLOGNA,998712583,CNA,40.6464602,17.9385563,4
BOLOGNA,BOLOGNA,998928990,ITL,44.6353481,11.414621,5
BOLOGNA,BOLOGNA,998957023,AIAS BOLOGNA ONLUS,44.4918109,11.3113665,5
BOLOGNA,BOLOGNA,999445709,IOR,44.4762948,11.3410456,14
BOLOGNA,BOLOGNA,999454633,ARPAE,44.50026095,11.32479822873924,6
BOLOGNA,BOLOGNA,999482375,RER,44.5086078,11.3633696,12
BOLOGNA,BOLOGNA,999559878,ICEA,44.4936714,11.3430347,1
BOLOGNA,BOLOGNA,999590239,COBO,44.4939256,11.3424416,5
BOLOGNA,BOLOGNA,999659885,IUNET,44.4892423,11.3566199,20
BOLOGNA,BOLOGNA,999927993,Unioncamere Emilia-Romagna,44.5076356,11.3644619,4
BOLOGNA,BOLOGNA,999993953,UNIBO,44.4968718,11.3524529,356
BOLOGNA,BOLOGNA BO,899261102,ART-ER,45.020781,7.8338801,24
BOLOGNA,BOLOGNA BO,910673637,NA,44.497874,11.3384565,1
BOLOGNA,BOLOGNA BO,912346693,GNext,44.4936714,11.3430347,7
BOLOGNA,BOLOGNA BO,917492640,T.G.R.,44.4936714,11.3430347,2
BOLOGNA,BOLOGNA BO,927285178,Giunko Srl,44.5095066,11.349824,1
BOLOGNA,BOLOGNA BO,946571882,STEPS,44.5344604,11.28849585005122,1
BOLOGNA,BOLOGNA BO,972293857,CNC,44.4996636,11.3470716,2
BOLOGNA,BOLOGNA BO,986258171,FORMICABLU,44.4957466,11.338629,11
BOLZANO,BOLZANO,897031751,NA,45.5727417,8.0747876,1
BOLZANO,BOLZANO,902835164,NOI Techpark Südtirol / Alto Adige,45.5727417,8.0747876,3
BOLZANO,BOLZANO,910975792,NA,44.8427042,8.5768652,2
BOLZANO,BOLZANO,911041170,ASM,46.499608,11.362276,1
BOLZANO,BOLZANO,912739640,SEAB SPA/AG,46.4853478,11.337024,1
BOLZANO,BOLZANO,918428787,INSTITUT FUR WIRTSCHAFTSFORDERUNG,46.4952135,11.3548122,3
BOLZANO,BOLZANO,919204690,MRG,46.4719417,11.327187329067705,1
BOLZANO,BOLZANO,920901996,IDM,46.4981125,11.3547801,4
BOLZANO,BOLZANO,923184115,ALPERIA,46.4995922,11.3625827,3
BOLZANO,BOLZANO,924194273,SAM sas,46.4974466,11.3409006,1
BOLZANO,BOLZANO,928447529,SASA,38.361231600000004,15.8531247,1
BOLZANO,BOLZANO,929004309,EDYNA,46.6746721,11.1485629,3
BOLZANO,BOLZANO,937851679,Huberg,46.4981125,11.3547801,1
BOLZANO,BOLZANO,947970137,AGENTUR FUR ENERGIE SUD TIROL - KLIMAHAUS,46.4783505,11.3320982,2
BOLZANO,BOLZANO,951854017,COBZ,46.9065316,11.0957531,1
BOLZANO,BOLZANO,957632404,MICROGATE S.R.L.,46.4981125,11.3547801,3
BOLZANO,BOLZANO,970864368,FHI,46.4783505,11.3320982,2
BOLZANO,BOLZANO,972051551,OKI,45.1913711,9.1858419,1
BOLZANO,BOLZANO,986197837,IIT BOLZANO INSTITUT FUR INNOVATIVE TECHNOLOGIEN BOZEN KONSORTIAL GMBH IIT BOZEN K,46.4739409,11.31773615,2
BOLZANO,BOLZANO,994979926,BOZEN,46.497720150000006,11.358292120139339,1
BOLZANO,BOLZANO,999552700,MPD,46.4719417,11.327187329067705,5
BOLZANO,BOLZANO,999853982,UNIBZ,46.4984863,11.3507335,15
BOLZANO,BOLZANO,999887253,Eurac Research,46.4944072,11.3439955,65
BOLZANO,BOLZANO (BZ),999743208,TIS INNOVATION PARK,46.4822562,11.3284937,1
BOLZANO,BOLZANO BZ,917821082,TECHNOALPIN,46.4981125,11.3547801,1
BORETTO,BORETTO,952356283,PRAMAR SRL,44.90187,10.554287,2
BORGO D ANAUNIA,BORGO D'ANAUNIA,914763351,NA,46.4324828,11.1517857,1
BORGO VAL DI TARO,BORGO VAL DI TARO,905763982,CCP,44.4883238,9.7679178,1
BORGO VAL DI TARO,BORGO VAL DI TARO,914286790,BorgoVT,44.487053,9.765777,1
BORGO VIRGILIO,BORGO VIRGILIO MN,917031211,NA,45.0881067,10.785801225860103,1
BORGOMANERO,BORGOMANERO,898821401,Edilclima srl,42.6384261,12.674297,1
BORGOMANERO,BORGOMANERO,926050174,EID,45.7087105,8.4540773,1
BORGONOVO VAL TIDONE,BORGONOVO VAL TIDONE,916573080,RTN Srl,45.014362,9.443461,1
BORGORICCO,BORGORICCO,953747457,PROSERV,45.5365359,11.9566816,1
BOSCO CHIESANUOVA,BOSCO CHIESANUOVA,903673632,Polo Europeo della Conoscenza,45.622031,11.0295874,1
BOSCOTRECASE,BOSCOTRECASE (NA),997221014,TECNAM,40.9161137,14.3046663,4
BOTTANUCO,BOTTANUCO,952930038,RIVIER,45.6428881,9.5139528,2
BOTTANUCO,BOTTANUCO BG,916635742,CB srl,45.6428605,9.5162299,1
BOVA,BOVA,929222753,GAL Area Grecanica SCaRL,37.995067,15.931901,1
BOVA MARINA,BOVA MARINA,998799301,AIAB,37.9306249,15.9174518,3
BOZEN,BOZEN,927893562,SEV,46.4760143,11.3237265,2
BOZEN,BOZEN,945046072,SCUOLA PROVINCIALE SUPERIORE DI SANITA COLLEGE OF HEALTH CARE PROFESSIONS,46.4989437,11.3071419,1
BOZEN,BOZEN,949367616,CARITASBZ,46.5011141,11.3497924,1
BOZEN,BOZEN,986192017,STA,46.4995743,11.3589765,1
BRA,BRA,938739811,SLOW FOOD,43.8014584,11.2007188,1
BRA,BRA,949553468,UNIVERSITY OF GASTRONOMIC SCIENCES,44.6834095,7.8950216,8
BRA,BRA,958300346,SLOW FOOD,42.121202600000004,12.23040466957174,1
BRA,BRA CN,957548305,NA,44.6959894,7.8546554,1
BRESCIA,Brescia,951752846,Copan Italia,45.5122285,10.1596465,1
BRESCIA,Brescia,986520944,LRS,42.8378532,13.6389415,5
BRESCIA,BRESCIA,893509390,NA,45.4279922,10.328465676993805,1
BRESCIA,BRESCIA,900895552,NA,45.4900646,10.2723013,1
BRESCIA,BRESCIA,905233877,Thimus Srl,45.550027300000004,10.215765,1
BRESCIA,BRESCIA,905912101,3D TARGET SRL,45.502268,10.1624803,1
BRESCIA,BRESCIA,906014339,Mara,45.4279922,10.328465676993805,1
BRESCIA,BRESCIA,913568311,TIP VENTURES,45.4279922,10.328465676993805,1
BRESCIA,BRESCIA,917767150,PATERLINI,45.5798151,10.2247497,1
BRESCIA,BRESCIA,918944245,HTA,45.4279922,10.328465676993805,1
BRESCIA,BRESCIA,922189768,CIVIL HOSPITAL OF BRESCIA-SOCIAL ANDSANITARY TERRITORIAL INSTITUTION,45.5548832,10.2311785,1
BRESCIA,BRESCIA,925098604,NA,45.521372,10.2097537,1
BRESCIA,BRESCIA,933471547,PLANET DI VILLA ALESSANDRO & C SAS,45.5399392,10.2204897,2
BRESCIA,BRESCIA,934522251,FondCervati,45.5167396,10.4128508,2
BRESCIA,BRESCIA,943127024,CSMT,45.5629587,10.2315601920805,1
BRESCIA,BRESCIA,945614880,IRLE SRL,45.8068642,10.111322,1
BRESCIA,BRESCIA,950596800,ACS,45.567656,9.9971423,3
BRESCIA,BRESCIA,951602787,CEMBRE,38.0202509,12.5458701,1
BRESCIA,BRESCIA,952790552,Zinco,45.5324692,10.2303062,1
BRESCIA,BRESCIA,953687026,GEX,45.56327175,10.2317311840247,2
BRESCIA,BRESCIA,962620435,FERALPI SIDERURGICA SPA,45.4279922,10.328465676993805,2
BRESCIA,BRESCIA,968656648,CREM,45.5399392,10.2204897,3
BRESCIA,BRESCIA,985350154,TURBODEN,45.4007795,9.924578,3
BRESCIA,BRESCIA,986400858,A2A,45.5203673,10.2151204,1
BRESCIA,BRESCIA,987110025,OMB SALERI SPA,45.5356709,10.1966391,3
BRESCIA,BRESCIA,997915728,BRESCIA MOBILITA SPA-SOCIETA METROPPLITA,45.5399392,10.2204897,1
BRESCIA,BRESCIA,998189947,IZSLER,45.5223797,10.2211595,3
BRESCIA,BRESCIA,998813560,"NARDONI",45.5399392,10.2204897,1
BRESCIA,BRESCIA,999615168,IRCCS- FBF,45.5207372,10.2019178,6
BRESCIA,BRESCIA,999893946,UNIBS,45.53772645,10.21800548125,26
BRESCIA,BRESCIA BS,903650643,SF,45.4279922,10.328465676993805,1
BRESCIA,BRESCIA BS,916876787,UNARETI,45.77958045,10.4258729694612,1
BRESCIA,BRESCIA BS,950346249,NEOS,45.5399392,10.2204897,1
BRESCIANA,BRESCIANA BS,968662177,AIB,45.4095397,9.950471220047659,2
BRESSANONE,BRESSANONE,908816087,NA,42.6384261,12.674297,1
BRESSO,BRESSO,923388979,FM EUROPE SPA,45.2961262,9.371647199999998,1
BRESSO,BRESSO,952629435,NEUROZONE,42.6384261,12.674297,1
BRESSO,BRESSO,973442434,EryDel,42.6384261,12.674297,1
BRESSO,BRESSO,999697036,IMS,42.6384261,12.674297,1
BRESSO,BRESSO MI,998198968,MOLMED SPA,45.5311643,9.189314,1
BRESSO MILANO,BRESSO MILANO,998516352,AXXAM,45.4929712,12.0787436,4
BRINDISI,BRINDISI,983016237,DTA S.C. A R.L.,40.6395295,17.945526,3
BRIXEN,BRIXEN,945488877,Barbieri electronic OHG des Barbieri Siegfried & C.,46.7119117,11.6655049,1
BRUGHERIO,BRUGHERIO,953691585,ETS,45.4828193,9.2056727,1
BRUGHERIO,BRUGHERIO,954436351,ISENET,45.5507486,9.3012222,2
BRUGINE,BRUGINE,951966828,CAREL,45.296592,11.995113,2
BRUSNENGO,Brusnengo (BI),950107823,NA,38.4848981,16.4527262,1
BUDRIO,BUDRIO,912200029,AQUABUDDY,44.537863,11.5354979,1
BUDRIO,BUDRIO BO,952966316,POLLUTION SRL,44.5378133,11.5355381,1
BURAGO DI MOLGORA,BURAGO DI MOLGORA,894278115,BRUNO PRESEZZI,45.5966599,9.3777061,1
BUSALLA,BUSALLA,891882021,NA,44.5754643,8.9637433,1
BUSSERO,Bussero,888893393,NA,42.6384261,12.674297,1
BUSSERO,Bussero,888893394,NA,45.4667971,9.1904984,1
BUSSERO MILANO,BUSSERO MILANO,929991672,Omini Pharma,45.5385094,9.3732245,1
BUSSETO,BUSSETO PR,932077463,RAUSCHERT,47.0407407,12.1058909,1
BUSTO ARSIZIO,BUSTO ARSIZIO,920216206,Reti,45.6119057,8.8520522,1
BUSTO ARSIZIO,BUSTO ARSIZIO,929880413,NastriTex,45.6010142,8.8481939,1
BUSTO ARSIZIO,BUSTO ARSIZIO,998592982,CENTROCOT,45.61604585,8.864700429627657,3
BUSTO ARSIZIO,BUSTO ARSIZIO  (VA),917151879,VOD-AUTO,45.6119057,8.8520522,2
BUTTIGLIERA ALTA,BUTTIGLIERA ALTA,939113164,GEM,45.064853,7.4365821,5
BUTTIGLIERA ALTA,BUTTIGLIERA ALTA TO,969028061,Project,45.0670843,7.4316654,5
BUTTRIO,BUTTRIO,913380713,BM PLUS,46.010421,13.333831,1
BUTTRIO,Buttrio (UD),951909792,NA,46.007564,13.3327964,1
CADELBOSCO DI SOPRA,CADELBOSCO DI SOPRA,934610327,Clevertech Spa,44.7633191,10.5951823,1
CADORAGO,CADORAGO,956239678,SACCO S.R.L.,45.7218126,9.0386955,1
CADRIANO GRANAROLO EMILIA,CADRIANO GRANAROLO EMILIA,930182762,PLASTICAL srl,44.5436854,11.3912654,1
CAGLIARI,Cagliari,909532238,Museo Archeologico Nazionale di Cagliari,39.2216974,9.1166861,1
CAGLIARI,Cagliari,911578356,ENGINEERING SARDEGNA,39.2169525,9.1128513,1
CAGLIARI,Cagliari,941301581,YOUR DATA SRL,39.22038815,9.10790566292,2
CAGLIARI,Cagliari,942382258,MORPHWIZE,39.2062607,9.1296707,1
CAGLIARI,CAGLIARI,900653052,OptoM.,39.2141664,9.1274527,1
CAGLIARI,CAGLIARI,915866629,AGENZIA FORESTAS - FORESTAS AGENCY,39.2270384,9.1095224,2
CAGLIARI,CAGLIARI,920639708,Botteega srl,39.2367186,9.1106593,1
CAGLIARI,CAGLIARI,921822526,PLURIBUS ONE,39.2220537,9.1271708,8
CAGLIARI,CAGLIARI,925924947,ENAS,39.22038815,9.10790566292,2
CAGLIARI,CAGLIARI,926709677,MARRAIAFURA COMUNICAZIONE,39.2192608,9.1186315,1
CAGLIARI,CAGLIARI,927784243,MEDSEA,45.0675348,7.5577127,2
CAGLIARI,CAGLIARI,935860851,ENERGIA MEDITERRANEA SRL,39.2117512,9.1285358,2
CAGLIARI,CAGLIARI,936660034,CAL Sardegna,39.2196457,9.116834,1
CAGLIARI,CAGLIARI,938226196,CTM SPA,39.2169525,9.1128513,1
CAGLIARI,CAGLIARI,938906166,Confindustria Sardegna,39.22038815,9.10790566292,4
CAGLIARI,CAGLIARI,964126457,RAS,39.2246231,9.1028521,1
CAGLIARI,CAGLIARI,996501177,TISCALI,39.22038815,9.10790566292,1
CAGLIARI,CAGLIARI,999841663,UNICA,39.2175849,9.1150052,34
CAGLIARI,CAGLIARI,999961943,SARDEGNA RICERCHE,39.2201369,9.1097815,5
CAGLIARI,CAGLIARI CA,915371735,LUTECH BEETOBIT,39.2802593,9.0134804,1
CAGLIARI,CAGLIARI CA,929015173,ANCI,39.2172145,9.1082828,1
CALAMBRONE PISA,CALAMBRONE PISA,949800333,IMAGO 7,43.6184758,10.2912747,2
CALATAFIMI SEGESTA,CALATAFIMI SEGESTA,917465383,NA,37.9386493,12.838503906458403,1
CALCI,CALCI,936035936,MEDRA,43.7154375,10.5075798,1
CALCINAIA,CALCINAIA PI,953720588,MPT,43.6832014,10.6153079,1
CALDERARA DI RENO,CALDERARA DI RENO,907991490,DATALOGIC,44.5467406,11.3024814,1
CALDERARA DI RENO,CALDERARA DI RENO,924048385,GI ERRE PLASTIC,44.5483355,11.2664979,1
CALDERARA DI RENO,CALDERARA DI RENO BO,917931080,REALSTAR S.r.l.,44.5630515,11.271693,1
CALDERARA DI RENO,CALDERARA DI RENO BO,952996095,BRI,44.5715704,11.2526665,2
CALDERARA DI RENO,CALDERARA DI RENO BO,970888424,GIGANT,44.5442561,11.2673575,2
CALENZANO,CALENZANO,950780712,NTL,43.8440412,11.169238,1
CALENZANO,CALENZANO FI,940252332,NA,43.8652493,11.1673685,2
CALOLZIOCORTE,CALOLZIOCORTE,924629900,Larius,45.8014719,9.4329787,1
CALOLZIOCORTE,CALOLZIOCORTE,957620473,VICOTER,42.6384261,12.674297,1
CAMERANO,CAMERANO AN,938097380,CAMICERIA GIOVANNI TACCALITI,43.5312679,13.5515741,1
CAMERINO,CAMERINO,904970231,BIOVECBLOK,42.8908704,11.3913631,1
CAMERINO,CAMERINO,907312393,MUNICIPALITY DI CAMERINO,43.1352225,13.0675439,1
CAMERINO,CAMERINO,911066778,Egg Technology,42.6384261,12.674297,1
CAMERINO,CAMERINO,912958084,Limix Srl,42.6384261,12.674297,1
CAMERINO,CAMERINO,999845737,UNICAM,43.13576335,13.0682524905556,16
CAMINO AL TAGLIAMENTO,CAMINO AL TAGLIAMENTO UD,953587504,VIDEO SYS,45.9520223,12.9863116,4
CAMPAGNOLA DI ZEVIO,CAMPAGNOLA DI ZEVIO,999450462,ICI,45.3641646,11.1896349,11
CAMPEGINE,CAMPEGINE RE,937622274,RPH,44.783667,10.531889,2
CAMPI BISENZIO,CAMPI BISENZIO,907860540,ppqSense,43.8453998,11.1475317,2
CAMPI BISENZIO,CAMPI BISENZIO (FI),938627679,greenApes,41.8935085,12.4825526,3
CAMPIGLIA MARITTIMA,CAMPIGLIA MARITTIMA,914670231,TERRELOGICHE,43.0606283,10.6154958,1
CAMPOBASSO,CAMPOBASSO,904325084,AZIENDA SPECIALE S.E.R.M. - SVILUPPO ECONOMICO DELLA REGIONE MOLISE -DELLA CAMERA DI COMMERCIO DEL M,41.5556606,14.6570442,5
CAMPOBASSO,CAMPOBASSO,950742979,AFA SYSTEMS,41.5515243,14.6589649,1
CAMPOBASSO,CAMPOBASSO,999850005,UNIMOL,41.5597935,14.6602725,5
CAMPOCHIARO,CAMPOCHIARO,946926514,Kiunsys S.r.l.,41.447524,14.508928,1
CAMPOSANTO,CAMPOSANTO,907329271,OEB,38.0241597,15.009238,1
CANDIOLO,CANDIOLO TO,966408479,FPO,44.959244,7.601722,4
CANNETO SULL OGLIO,CANNETO SULL'OGLIO,891791520,NA,45.1494046,10.3797364,1
CANTAGALLO,CANTAGALLO,929997686,BESTE,43.6870687,12.6419981,1
CANTU,CANTU',997467976,BEL,45.6622347,9.155058,2
CAORSO,CAORSO PC,903156428,S.A.I.B. S.P.A.,44.705595,9.717744893877548,1
CAPANNOLI,CAPANNOLI PI,919564269,CO-ROBOTICS,45.060735,7.923549,2
CAPANNORI,Capannori,888889833,NA,42.6384261,12.674297,1
CAPANNORI,CAPANNORI,911514821,BRUNO BALDASSARI & FRATELLI SPA,42.6384261,12.674297,4
CAPONAGO,CAPONAGO,945426700,TROCELLEN ITALIA SPA,45.5665048,9.3757203,1
CAPRIOLO,CAPRIOLO,935048379,INTERSEALS,45.6372565,9.9336046,1
CAPUA,CAPUA,999789768,CIRA,41.1157452,14.190345,47
CARASCO,CARASCO,901331373,MECTRON,42.6384261,12.674297,1
CARAVAGGIO,CARAVAGGIO,911688257,NA,45.4977615,9.6438267,1
CARBONERA,CARBONERA,951853144,SIL,44.0656639,10.108639,1
CARBONERA,CARBONERA,998647787,MBN,45.6838739,12.2863445,20
CARBONIA,CARBONIA,951308295,SOTACARBO,39.16075015,8.51098870811736,4
CARDITO,CARDITO,915041547,CyberEthics Lab.,40.943796,14.2973383,9
CARINI,CARINI,950757917,Tecnozinco,40.4663393,17.9596008,1
CARLOFORTE,CARLOFORTE,906319792,CCF,39.1457919,8.3065052,1
CARPANETO PIACENTINO,CARPANETO PIACENTINO PC,938167996,CASELLA SRL,44.9151789,9.7877948,2
CARPI,CARPI,905123491,NCS Lab Srl,44.8029802,10.8937727,1
CARPI,CARPI,938540767,FONDAZIONE RECUPERO E VALORIZZAZIONE,44.7822465,10.8842209,1
CARPI,CARPI,943839295,CMB,44.7835699,10.8854523,2
CARPI,CARPI MO,969662441,ANZIANI E,44.7779486,10.8747152,1
CARPI,CARPI MO,986366326,IGEA SPA,44.7746547,10.8636839,1
CARRARA,CARRARA,896811367,PRO GE COM SRL,44.0444446,10.027953514404313,1
CARRARA,CARRARA,999713623,AVMAP,44.0416716,10.0630479,1
CARRARA,CARRARA MS,951980505,OKEY,44.0382139,10.0415612,8
CARUGATE,CARUGATE MI,926735770,CROMOSTAMP,45.549774,9.343749,1
CARVICO,CARVICO,911347302,Carvico,45.699879,9.494698,1
CARVICO,CARVICO,966566492,MAGNETTI,45.6998663,9.494564,1
CASALE MONFERRATO ALESSANDRIA,CASALE MONFERRATO ALESSANDRIA,986564982,BUZZI UNICEM SPA,45.1287251,8.4517889,1
CASALE SUL SILE,CASALE SUL SILE (TV),938191470,IMS,45.5978254,12.3253079,1
CASALE SUL SILE,CASALE SUL SILE TV,944667869,NUOVA TESI SYSTEM,45.6005852,12.2935603,5
CASALECCHIO DI RENO,CASALECCHIO  DI RENO,998836452,COOP ITALI,44.4828542,11.2635762,2
CASALECCHIO DI RENO,CASALECCHIO DI RENO,917969201,ADVENIAS SRL,44.4760177,11.2756857,1
CASALECCHIO DI RENO,CASALECCHIO DI RENO,986263991,MIE,44.4760177,11.2756857,1
CASALECCHIO DI RENO,CASALECCHIO DI RENO BO,973028341,BLUEGREEN,44.4867184,11.2696976,2
CASALECCHIO DI RENO,CASALECCHIO DI RENO BO,999843409,CINECA,44.48625365,11.2597288669283,65
CASALI DE MANCO,CASALI DE MANCO,887875921,NA,44.4800722,11.2785385,1
CASALNUOVO DI NAPOLI,CASALNUOVO DI NAPOLI,953025874,LAER SPA,40.91588,14.3531297,2
CASALNUOVO DI NAPOLI,CASALNUOVO DI NAPOLI NA,938105140,LEAD TECH SRL,40.9148194,14.3511247,2
CASCINA,CASCINA,910819913,TUSCANTECH,43.684135,10.4869289,1
CASCINA,CASCINA,927095834,ZENUP,43.6766738,10.5492244,1
CASCINA,CASCINA,935828744,WiTech S.p.a.,43.6766738,10.5492244,1
CASCINA,CASCINA,935910515,CARTACCI,43.6766738,10.5492244,1
CASCINA,CASCINA,936123139,ECONBOARD,45.4008087,9.0355482,1
CASCINA,CASCINA,973178012,CUBIT,43.6851154,10.4868067,3
CASCINA,CASCINA,996454229,HYPERBOREA SRL,43.6766738,10.5492244,3
CASCINA,CASCINA,999540672,EGO,45.7251138,9.3681647,6
CASCINA,CASCINA,999669973,RESILTECH,43.6766738,10.5492244,5
CASCINA,CASCINA PI,927818969,SPACEDYS,45.060735,7.923549,1
CASCINA,CASCINA PI,928720681,ARH,45.600917,10.2900082,1
CASCINA,CASCINA PI,950466044,POLO,43.6766738,10.5492244,1
CASEI GEROLA,CASEI GEROLA,938001738,ECOFOR SrL,45.0139161,8.93468613463864,1
CASELLE TORINESE,CASELLE TORINESE,897496187,NA,45.1949239,7.6436372,1
CASERTA,CASERTA,923983783,NA,41.09677515,14.368484654501607,2
CASERTA,CASERTA,968692829,IM2,41.09677515,14.368484654501607,2
CASERTA,CASERTA,999848356,SUN,41.06361925,14.343324959151055,28
CASOLI,CASOLI,952240271,COMETA SPA,42.114637,14.290214,1
CASORATE PRIMO,CASORATE PRIMO,917748623,REPOSSI,45.312282,9.020504,2
CASSINO,CASSINO,920742722,Progemec S.r.l.,41.4925576,13.8305297,1
CASSINO,CASSINO,958668364,ENSIEL,41.4925576,13.8305297,2
CASSINO,CASSINO,999844767,UNICAS,41.4925576,13.8305297,14
CASSINO,CASSINO (FR),914174270,Tekno compositi,41.4803706,13.7972829,1
CASSINO,CASSINO FR,916109517,Vesta Srl,41.4925576,13.8305297,1
CASSOLA,CASSOLA,918087735,IKOI Srl,45.7524578,11.7630563,1
CASTAGNITO,CASTAGNITO,998540796,VIGNAIOLI,44.745884,8.0601123,1
CASTEL BOLOGNESE,CASTEL BOLOGNESE RA,969042417,CURTI,44.3262905,11.7847784,1
CASTEL DEL PIANO,CASTEL DEL PIANO,892699634,CORSINI BAKERY,42.8856582,11.531728,2
CASTEL IVANO,CASTEL IVANO (TN),891841669,NA,46.0527766,11.5107971,1
CASTEL MAGGIORE,CASTEL MAGGIORE,927243274,SADEL,44.5769097,11.3610124,1
CASTEL MAGGIORE,CASTEL MAGGIORE (BO),944214103,SofTech,44.575685,11.3648104,1
CASTEL MAGGIORE,CASTEL MAGGIORE (BO),952712564,NSI,44.5769097,11.3610124,1
CASTEL MAGGIORE,CASTEL MAGGIORE (BO),953888883,NIER,44.5613269,11.3692543,3
CASTEL MAGGIORE,CASTEL MAGGIORE (BOLOGNA),913908878,Agri 2000 Net,44.5606932,11.3634602,1
CASTEL MAGGIORE,CASTEL MAGGIORE BO,990720074,MSB,44.5581389,11.3570271,2
CASTEL MAGGIORE BOLOGNA,CASTEL MAGGIORE BOLOGNA,973002442,Metatron,44.5656731,11.3677503,1
CASTEL SAN GIORGIO,CASTEL SAN GIORGIO,896379426,NA,45.427862149999996,12.34379720589002,1
CASTEL SAN PIETRO TERME,CASTEL SAN PIETRO TERME,902439501,AURA LIGHT ITALY,44.4601305,11.5754194,1
CASTEL SAN PIETRO TERME,CASTEL SAN PIETRO TERME,914225389,ALN,44.4452884,11.4454778,1
CASTELFIDARDO,CASTELFIDARDO,908817348,TASTITALIA,42.6384261,12.674297,1
CASTELFIDARDO,CASTELFIDARDO,933485224,ZAN,42.6384261,12.674297,1
CASTELFRANCO EMILIA,CASTELFRANCO EMILIA,895917124,NA,44.5877572,11.0506377,2
CASTELFRANCO EMILIA,Castelfranco Emilia (MO),994288025,CLU srl,44.5877572,11.0506377,2
CASTELFRANCO VENETO,CASTELFRANCO VENETO,908398211,CCV,45.6713966,11.9263098,1
CASTELFRANCO VENETO,CASTELFRANCO VENETO,923307790,GUIDOLIN GIUSEPPE - ECO. G. SRL,45.6838158,11.9703653,1
CASTELLAMMARE DI STABIA,CASTELLAMMARE DI STABIA NA,934314186,IVM,40.69603875,14.4817568334705,1
CASTELLAMONTE,CASTELLAMONTE TO,951577179,LCE,45.3815335,7.7138513,8
CASTELLANA GROTTE,CASTELLANA GROTTE BA,993599810,IRCCS,40.8837602,17.1538619,4
CASTELLANZA,CASTELLANZA,999428734,LIUC,45.612502,8.9004179,1
CASTELLAZZO BORMIDA,CASTELLAZZO BORMIDA,921559947,EASYSNAP,44.6561278,10.8731177,1
CASTELLAZZO BORMIDA,CASTELLAZZO BORMIDA AL,893997106,NA,44.84505,8.577245,1
CASTELLI CALEPIO,CASTELLI CALEPIO BG,893828714,NA,45.63196645,9.896062873799924,1
CASTELLINA IN CHIANTI,CASTELLINA IN CHIANTI SI,989938060,WAVECOMM,43.4691786,11.2872857,1
CASTELLO DI GODEGO,Castello di Godego,936136816,BRETON SPA,45.6869661,11.882917669907108,4
CASTELNOVO NE MONTI,CASTELNOVO NE MONTI,952298859,Sungen,44.4496806,10.4626761,1
CASTELNUOVO GARFAGNANA,CASTELNUOVO GARFAGNANA,950081536,UC GARFAGNANA,44.109392,10.4119748,1
CASTELNUOVO RANGONE,CASTELNUOVO RANGONE,983950153,VILL,44.5519869,10.9380857,1
CASTENASO,CASTENASO,898635161,Poggi,44.5204728,11.431156,1
CASTENASO,CASTENASO,930157833,B&P S.P.A,44.5088703,11.4698112,1
CASTESANO,CASTESANO,919713164,G R GAMBERINI,42.6384261,12.674297,1
CASTO,CASTO,901127479,NA,41.8916573,12.485602684682803,2
CASTRO,CASTRO,901351161,MARINI,40.0008872,18.4272307,1
CASTRONNO,CASTRONNO,927922468,GIMAC INTERNATIONAL,45.7468305,8.8141625,1
CATANIA,Catania,888893586,NA,37.467242600000006,15.067568274467547,1
CATANIA,CATANIA,895349286,NA,37.5025168,15.088218249002288,1
CATANIA,CATANIA,902487710,NA,37.5147565,15.0861538,1
CATANIA,CATANIA,906315039,AOEC,37.7709664,15.1958057,2
CATANIA,CATANIA,911207428,AZIENDA SANITARIA PROVINCIALE DI CATANIA,40.6413652,8.2036607,1
CATANIA,CATANIA,927699853,AMTS,37.5022355,15.08738,1
CATANIA,CATANIA,929401136,BENG,37.5231709,15.0705151,1
CATANIA,CATANIA,934513230,IACP CATANIA,37.5025168,15.088218249002288,1
CATANIA,CATANIA,936515019,SAT,37.4238296,15.0618647,1
CATANIA,CATANIA,952406432,MUNICIPALITY OF CATANIA,45.29664665,12.034016276732675,1
CATANIA,CATANIA,952919368,DTSMNS,37.5022355,15.08738,2
CATANIA,CATANIA,953209786,ETNA,37.4345359,15.0489786,1
CATANIA,CATANIA,998884273,JO,37.5130983,15.099002,1
CATANIA,CATANIA,999874061,UNICT,37.5021788,15.0872574,33
CATANIA,CATANIA,999921882,CCR,37.5050286,15.0853507,2
CATANZARO,CATANZARO,934933919,ARCON,38.8272098,16.3194445,1
CATANZARO,CATANZARO,986282324,CaR,38.9076353,16.5960465,8
CATANZARO,CATANZARO,998529641,UNICZ,42.6384261,12.674297,3
CAVA DE TIRRENI,CAVA DE TIRRENI SA,929778951,YOUBIQUO,40.7033712,14.6994194,4
CAVENAGO DI BRIANZA,CAVENAGO DI BRIANZA,952923539,Stena Technoworld,45.5798913,9.4090019,1
CAVRIAGO,CAVRIAGO,905909676,BAIFF SNC,44.6918968,10.5371876,1
CAVRIAGO,CAVRIAGO,930279956,OMCA SRL,44.6941945,10.5268984,1
CAVRIAGO,CAVRIAGO,998482402,GHEPI,42.6384261,12.674297,1
CAZZANO SANT ANDREA,CAZZANO SANT ANDREA,901151438,RADICI PIE,45.8127326,9.8847039,1
CECCANO,CECCANO,951667874,NA,42.6384261,12.674297,3
CECINA,CECINA,925402408,NA,42.6384261,12.674297,3
CEFALU,CEFALU,938872895,COMUNE DI CEFALU,38.0391845,14.0220379,1
CERANO,CERANO NO,952763295,GARBO SRL,45.4065754,8.7869593,3
CERCOLA,CERCOLA NA,986228974,Marotta srl,40.7545205,14.4435481,1
CEREA,CEREA,911471559,NETGRID S.N.C.,45.1885715,11.219101,1
CEREA,CEREA,927886287,PLEION SRL,42.6384261,12.674297,1
CEREA,CEREA VR,920023564,Troll Srl,45.1885509,11.2384851,1
CERIANO LAGHETTO,CERIANO LAGHETTO,893058728,NA,45.6213114,9.1067222,1
CERMENATE,CERMENATE,951506175,BOLTON FOOD,42.6384261,12.674297,1
CERNUSCO SUL NAVIGLIO,CERNUSCO SUL NAVIGLIO,913741747,Intertek Italia,45.5245578,9.330925,1
CERNUSCO SUL NAVIGLIO,CERNUSCO SUL NAVIGLIO MI,999909951,HPE,45.5245578,9.330925,18
CERRETO GUIDI,CERRETO GUIDI FI,924176037,ARCHIGROUP,43.7830756,10.8459789,1
CERRO MAGGIORE,CERRO MAGGIORE,900104420,Tuv Nord Italia,45.95118205,8.634267351073145,1
CERRO MAGGIORE,CERRO MAGGIORE,938296424,l'acn,45.595272,8.950239,1
CERRO MAGGIORE,CERRO MAGGIORE MI,924144415,C.A.T. SRL,45.5973094,8.9660614,1
CERVASCA,CERVASCA (CN),898896188,NA,45.7864641,9.0538212,1
CESENA,CESENA,918952781,PIERI S.R.L.,44.1876357,12.2143505,1
CESENA,CESENA,919553696,CAC,44.2246723,12.2934906,1
CESENA,CESENA,922821723,BLOOM,44.136352,12.2422442,1
CESENA,CESENA,927856508,OROGEL,44.2246723,12.2934906,2
CESENA,CESENA,932679348,STARTROMAGNA,44.1469344,12.2597503,1
CESENA,CESENA,935624268,BIOSPHERE,44.14313,12.250904,2
CESENA,CESENA,935958239,ELEMENTS SRL,44.2000657,12.4001877,3
CESENA,CESENA,937908521,CONSORZIO SATIVA SOC COOP AGRICOLA,44.1679966,12.2630168,1
CESENA,CESENA,938287985,TREVI,44.1729294,12.2182767,3
CESENA,CESENA,950724355,CBR,44.1331003,12.2694345,1
CESENA,CESENA,953726214,APOFRUIT,44.1141562,12.3869414,1
CESENA,CESENA,972429463,C.R.P.V.,44.1629205,12.2188711,2
CESENATICO,CESENATICO,907194053,RIL,42.6384261,12.674297,1
CETONA,CETONA,922192484,CITEMA,42.9647394,11.9004107,1
CHARVENSOD,CHARVENSOD,911132835,DIMENSIONE ING.,42.6384261,12.674297,1
CHARVENSOD,CHARVENSOD,927607800,8B SRL,45.7278887,7.3379276,1
CHERASCO,CHERASCO,951873320,MTM,44.649722,7.8928324,3
CHERASCO,CHERASCO CN,940525484,STARTEED SRL,44.6676952,7.8284113,1
CHIARI,CHIARI BS,952886582,SCI,40.8411811,14.2327633,1
CHIERI,CHIERI,911169113,Martini & Rossi,44.96544715,7.841350919575893,2
CHIERI,CHIERI TO,929306949,ASL TO5,45.0099142,7.8220147,2
CHIERI,CHIERI TO,950108017,PER,45.013947,7.822326,1
CHIETI,CHIETI,897742276,NA,42.6384261,12.674297,1
CHIETI,CHIETI,898955746,NA,42.6384261,12.674297,1
CHIETI,CHIETI,919729557,Glomeria,42.3446529,14.1659738,1
CHIETI,CHIETI,922359421,TUA,42.3490589,14.1645996,1
CHIETI,CHIETI,942949417,AZIENDA SPECIALE AGENZIA DI SVILUPPO DELLA CAMERA DI COMMERCIO DI CHIETI,42.3446529,14.1659738,4
CHIETI,CHIETI,952916361,WT,42.3446529,14.1659738,3
CHIETI,CHIETI,999866786,Ud'A,42.3706063,14.1479011,24
CHIGNOLO D ISOLA,CHIGNOLO D ISOLA,943288723,FLAG,42.6384261,12.674297,1
CHIGNOLO D ISOLA,CHIGNOLO D ISOLA BG,913231236,RAD,45.667579,9.527651,1
CHIUSA SAN MICHELE,CHIUSA SAN MICHELE,949936327,SAVIO,45.1057634,7.3234781,1
CHIVASSO,Chivasso,946293492,Herniamesh,45.2153026,7.8878732,1
CHIVASSO,CHIVASSO,893423351,NA,42.6384261,12.674297,1
CHIVASSO,CHIVASSO,896087650,NA,45.0644697,8.0988611,1
CHIVASSO,CHIVASSO,986337614,TECNODELTA SRL,45.2183148,7.8869455,2
CICCIANO,CICCIANO NA,918469721,ISR,40.8359336,14.2487826,1
CIGOGNOLA,CIGOGNOLA,907378644,XIL,45.9256499,12.8557744,1
CIMADOLMO,CIMADOLMO TV,932103071,Panotec Srl,45.7790432,12.3530198888245,1
CINISELLO BALSAMO,CINISELLO BALSAMO,909967768,NA,45.5560579,9.2140112,1
CITTA DI CASTELLO,CITTA' DI CASTELLO,954227995,CAI,44.2130171,9.8407517,3
CITTA DI CASTELLO,CITTA DI CASTELLO,945613716,FONDAZIONE CENTRO STUDI VILLA MONTESCA,43.45140395,12.2275964876953,1
CITTADELLA,CITTADELLA PD,908178700,BNP,45.6487941,11.7835801,1
CITTADELLA DELLA RICERCA BRINDISI,CITTADELLA DELLA RICERCA BRINDISI,999500223,CETMA,40.6395295,17.945526,17
CIVITA CASTELLANA,CIVITA CASTELLANA,896375449,NA,42.294225,12.4124237,1
CIVITELLA PAGANICO,CIVITELLA PAGANICO,905806371,TDPA,43.0241256,11.2893105,1
CLUSONE,CLUSONE,919035425,AERIS GROUP,45.887088,9.949656,2
COCQUIO TREVISAGO,COCQUIO TREVISAGO VA,964666456,KITE,45.8601594,8.6940251,3
CODOGNO,Codogno,936561967,Pellini Spa,45.1600664,9.70437,1
CODOGNO,CODOGNO,912178204,POLI BOX ITALIANA SRL,45.1600664,9.70437,1
CODROIPO,CODROIPO,895799463,BLUENERGY ASSISTANCE SRL,45.9584112,12.9887911,1
CODROIPO,CODROIPO,899006380,AT,45.9614475,12.9785195,1
COLLECCHIO,COLLECCHIO,952326795,PARMALAT SPA,44.7516071,10.2268405,2
COLLECCHIO,COLLECCHIO,971550449,NA,44.7623427,10.2472623,3
COLLEGNO,COLLEGNO,915167162,DUAL,42.6384261,12.674297,1
COLLEGNO,COLLEGNO,916923153,PENETRON IT,45.1000429,7.6121424,1
COLLEGNO,COLLEGNO,974106496,ASL TO3,45.0775473,7.5724262,5
COLLEGNO,COLLEGNO,990071920,PRIMA INDUSTRIE SPA,45.0775473,7.5724262,12
COLLERETTO GIACOSA,COLLERETTO GIACOSA,998202169,BIPCA SPA,45.4412562,7.82624597165439,2
COLLERETTO GIACOSA TORINO,COLLERETTO GIACOSA TORINO,984260456,"NATIMAB",45.4412562,7.82624597165439,1
COLOGNA VENETA,COLOGNA VENETA,918234690,FPI,45.6476663,11.8665254,1
COLOGNO MONZESE,Cologno Monzese,988508086,MACH4,45.537756,9.2858199,1
COLOGNO MONZESE,COLOGNO MONZESE,925476225,EMMECOM,45.542303,9.266978,1
COLOGNO MONZESE,COLOGNO MONZESE,999511669,CESI,45.5326907,9.2959767,4
COLOGNO MONZESE,COLOGNO MONZESE,999909466,TXT,45.517225,9.222553,8
COLOGNO MONZESE,COLOGNO MONZESE MI,967232494,WISE SRL,45.5346564,9.2746153,2
COMACCHIO,COMACCHIO,927574723,NA,42.6384261,12.674297,1
COMO,Como,996523487,VALDUCE,45.7902258,9.1201234,3
COMO,COMO,906079426,MOI,45.9917589,9.264881035005711,1
COMO,COMO,909618180,Aeffe srl,45.8147056,9.0878952,1
COMO,COMO,915407237,ComoNExT,45.8201768,9.0647815,2
COMO,COMO,917562092,Agere,45.8075846,9.0844895,1
COMO TAVERNOLA,Como-Tavernola,888888707,NA,45.81082,9.086044,1
CONCESIO,CONCESIO,947320237,NBR,45.6089849,10.2061408,1
CONCESIO BRESCIA,CONCESIO BRESCIA,966512463,ENKI S.R.L.,45.4279922,10.328465676993805,4
CONCORDIA SULLA SECCHIA,CONCORDIA SULLA SECCHIA,905579488,TECNOLINE S.p.A,44.9092046,10.9922093,1
CONCOREZZO,CONCOREZZO,936162424,MACCHINE SPEC,45.5905729,9.325751,1
CONEGLIANO,CONEGLIANO TV,959340186,eAMBIENTE SRL,45.8693318,12.297875,2
CONSELICE,CONSELICE,902629136,VCZSA,44.5339538,11.8376649,1
CONSELVE,Conselve (PD),932678184,SAS,45.2337438,11.8740131,1
CONSELVE PADOVA,CONSELVE PADOVA,901172487,HYDR,45.2337438,11.8740131,1
CONVERSANO,Conversano,933136315,Cupersafety,43.4067278,13.675406,1
CONVERSANO,Conversano,933449722,Ingel,40.9722022,17.1032176,1
CONVERSANO,CONVERSANO BA,971634451,TERA,40.9726146,17.1103597,1
COPPARO,COPPARO,905284123,CAVALLERETTI,42.6384261,12.674297,1
COPPARO,COPPARO,923683956,Vortex,44.8451866,11.7780436,1
CORATO,CORATO,959078092,ICMEA,42.6384261,12.674297,1
CORBETTA,CORBETTA,995531856,MARELLI,42.6384261,12.674297,16
CORBETTA,CORBETTA MI,973064328,SISTEMI SOSPENSIONI SPA,45.4667971,9.1904984,2
CORCIANO,CORCIANO,893626275,REGUSTO,42.6384261,12.674297,1
CORDENONS,CORDENONS,909080218,DOLPHIN BIOLOGY AND CONSERVATION,42.6384261,12.674297,1
CORMANO,CORMANO MI,950574975,RTMB,42.6384261,12.674297,1
CORMANO,CORMANO MI,969023114,AO,45.5505593,9.1538085,1
CORNATE D ADDA,Cornate d'Adda,990657703,TEO,45.6468681,9.4650647,3
CORNATE D ADDA,CORNATE D'ADDA,912610048,COR,45.6401536,9.4834782,5
CORREGGIO,CORREGGIO,912233979,Prima Industries Srl,44.7597708,10.7874788,2
CORREGGIO,CORREGGIO,927156459,UNE,44.75269905,10.7860032701005,1
CORREGGIO,CORREGGIO RE,970332420,WG,44.771799,10.7786001,24
CORRIDONIA,CORRIDONIA MC,969108474,ISEA SRL,43.2484575,13.509212,2
CORSICO,CORSICO,983426062,Amec FW,42.6384261,12.674297,4
CORSICO,CORSICO (MI),927522537,DOLPHIN FLUIDICS,45.4441725,9.1103183,2
CORSICO,CORSICO (MI),927736131,FLUID-O-TECH,45.4328675,9.1094065,1
CORSICO,CORSICO (MI),938072742,F-LAB SrL,45.4441725,9.1103183,1
CORTACCIA SULLA STRADA DEL VINO,CORTACCIA SULLA STRADA DEL VINO BZ,899097463,Rothoblaas,42.6384261,12.674297,2
COSENZA,COSENZA,919275209,LIVETECH,42.6384261,12.674297,2
COSENZA,COSENZA,934458619,e way Enterprise Business Solutions Srl,39.3099931,16.2501929,1
COSENZA,COSENZA,951878267,ALESSCO,39.2866042,16.2618177452939,2
COSIO VALTELLINO,COSIO VALTELLINO,948651465,PIZ SRL,46.1337409,9.5291545,1
COSTA DI MEZZATE,Costa di Mezzate,943616680,GUALINI SPA,45.661981,9.793957,2
CREMA,CREMA,925667412,Linea Gestioni,42.6384261,12.674297,1
CREMA,CREMA,934642337,IGW,45.3667265,9.6904333,1
CREMA,CREMA,997441301,ARAL,45.3592558,9.6886194,1
CREMA,CREMA CR,904157371,CSC,45.362828,9.6874573,1
CREMONA,Cremona,998167831,AVT,45.3537209,9.6659362,3
CREMONA,CREMONA,891764651,NA,45.133768149999995,10.025124109587887,1
CREMONA,CREMONA,904014878,GIEI,45.184941,9.8884881,1
CREMONA,CREMONA,951767978,Comune di Cremona,45.133768149999995,10.025124109587887,1
CREMONA,CREMONA,953905373,CCIAA CREM,45.133768149999995,10.025124109587887,1
CRESPELLANO,CRESPELLANO,938142679,Varvel SpA,44.52960015,11.146101249749,2
CRESPELLANO,CRESPELLANO,941140076,NA,45.41720775,9.128649186742251,1
CRESPINA LORENZANA,CRESPINA LORENZANA,925171160,HELIO,43.587912,10.5546526,1
CREVALCORE,CREVALCORE,998607338,CAA,44.7562596,11.1391097,1
CURA CARPIGNANO,CURA CARPIGNANO,999616817,BRIGHT,42.6384261,12.674297,1
CURNO,CURNO BG,984966422,BREMBO SPA,45.6915142,9.6109659,9
CUSANO MILANINO,CUSANO MILANINO,940259704,JC S&S Italy srl,45.546565,9.1760742,1
DERUTA,DERUTA PG,939313566,VIOLA CONSULTING,42.6384261,12.674297,2
DERUTA,DERUTA PG,954340224,VGA,42.6384261,12.674297,3
DESENZANO DEL GARDA,DESENZANO DEL GARDA,937866617,Renience S.r.l.,45.4694851,10.5389467,1
DESIO,DESIO,960132482,BLU ELECTRONIC,45.6226365,9.216396012495128,3
DESIO,DESIO - MB,901159295,LS,45.9871135,9.2621754,1
DESIO,DESIO MB,950637734,ISNOVA,42.0420626,12.3011644,1
DRUENTO,DRUENTO,993738035,TESEO SPA,45.134748,7.576618,2
DUEVILLE,DUEVILLE VI,917780051,NA,41.90067315,12.454805759122166,1
DUEVILLE,DUEVILLE VI,923860302,scae,45.6336944,11.550191,1
EBOLI,EBOLI,924275947,ALMA SEGES,40.5614539,14.9840564,1
ELMAS,ELMAS,897088302,GRID ABILITY,39.2539276,9.060469581467512,3
ELMAS,ELMAS,899680821,NurjanaTech,39.2539276,9.060469581467512,1
EMILIA,EMILIA,924332013,ACER REGGIO EMILIA,44.6509372,10.7847176,4
EMPOLI,Empoli,942282348,Sammontana S.p.A.,43.6630522,10.6874149,1
EMPOLI,EMPOLI FI,931649014,GRINT Soc.Cons. a R.L,43.7209493,10.9522845,1
EMPOLI,EMPOLI FI,958704060,LIB,43.7248734,10.9568107,1
ENNA,ENNA,973138339,UKE,37.5667573,14.2807473,2
ENTRATICO,ENTRATICO,950802440,EUROVIX,42.6384261,12.674297,1
ERBA,ERBA,910381667,LISAPHARMA,45.806807,9.2267734,1
ERBA,ERBA,913194861,NA,45.75372375,9.22309221481289,1
ERBA,ERBA CO,951578537,LIFEGATE,45.80958,9.231242,1
ERBUSCO,ERBUSCO,917825835,MORETTI,45.598681,9.971862,1
ESTE,ESTE,971574408,ISOCLIMA SPA,45.2240069,11.659796,1
FABRIANO,FABRIANO,926144846,NA,43.3419617,12.9030158,1
FABRIANO,FABRIANO,986248180,ELICA SPA,42.6384261,12.674297,1
FABRIANO,FABRIANO,986286689,Meccano,42.6384261,12.674297,1
FABRICA DI ROMA,FABRICA DI ROMA,942679466,NA,42.335126,12.299767,1
FAENZA,FAENZA,922621418,CAVIRO,44.3090706,11.8662899,1
FAENZA,FAENZA,927166353,ELETTRONICA GF,44.2995885,11.8566958,2
FAENZA,FAENZA,949167020,RIBA,44.312781,11.8987644,1
FAENZA,FAENZA,950641711,CERTIMAC,44.3088099,11.8971927,5
FAENZA,FAENZA,998500347,FINCERAMICA,44.3659567,11.939383,3
FALCONARA MARITTIMA,FALCONARA MARITTIMA AN,917609137,T4C,43.6254421,13.4008599,1
FANO,FANO,891566286,ENERECO SPA,43.8246235,13.0121023,1
FANO,FANO PS,919239416,ASET,44.274795049999994,11.89120217996469,1
FASANO,FASANO,913809938,AQUASOIL SRL,40.8320051,17.3625184,1
FASANO,FASANO,915364363,PISA,40.8466011,17.4514302,2
FAVIGNANA,FAVIGNANA,953302324,NA,42.6384261,12.674297,1
FELTRE,FELTRE,998627708,CLIVET,46.0163755,11.9062541,3
FENEGRO,FENEGRO,906148781,SITES SRL,45.7078026,9.0000824,1
FERENTINO,FERENTINO FR,938259079,ARKEN,41.6886558,13.25646,1
FERRANDINA,FERRANDINA MT,933547983,CONTEDIL,40.501218,16.454683,1
FERRARA,Ferrara,888891718,NA,42.6384261,12.674297,1
FERRARA,FERRARA,891451923,NA,44.850162,11.5878742,1
FERRARA,FERRARA,896090754,NA,44.829432,11.621783,1
FERRARA,FERRARA,902602073,AMB,44.8375774,11.6311345,2
FERRARA,FERRARA,903700986,CIDAS,44.8891171,11.8144777,1
FERRARA,FERRARA,905329034,IN MM S.R.L.,44.8502133,11.5808634,1
FERRARA,FERRARA,934393726,DELTAFIN,44.8179884,11.588032,1
FERRARA,FERRARA,934648157,Caleidos,44.815781200000004,11.5991578,1
FERRARA,FERRARA,935454906,Alga&Zyme Factory,44.8420178,11.6215066,1
FERRARA,FERRARA,938013572,Zuna S.R.L.,44.8179884,11.588032,1
FERRARA,FERRARA,938512249,ZUFFELLATO,44.8371856,11.6186451,1
FERRARA,FERRARA,942357329,ESTE,44.8097656,11.5972318,2
FERRARA,FERRARA,972294439,MEEO,44.8371856,11.6186451,9
FERRARA,FERRARA,991688037,SINTEC S.r.l.,44.8313749,11.6157986,5
FERRARA,FERRARA,998369203,FMSN,44.8360543,11.619133,1
FERRARA,FERRARA,998471344,ISTITUTO DELTA SRL,44.8179884,11.588032,1
FERRARA,FERRARA,999587038,CFR,44.8371856,11.6186451,7
FERRARA,FERRARA,999735060,AT-ITALY,44.8371856,11.6186451,1
FERRARA,FERRARA,999839626,Unife,44.8371856,11.6186451,44
FERRARA,FERRARA FE,918715810,PETRA,44.8638555,11.5529071,1
FERRERA ERBOGNONE,FERRERA ERBOGNONE PV,938019586,ARGITEK SrL,45.115059,8.864347,1
FERRERA ERBOGNONE,FERRERA ERBOGNONE PV,938174786,TIRSI SrL,45.115059,8.864347,1
FIDENZA,FIDENZA,910604767,CNTLAB,44.8511184,10.0737772,1
FIDENZA,FIDENZA,953055459,AEVF,42.6384261,12.674297,1
FIESOLE,FIESOLE,999902385,ISTITUTO UNIVERSITARIO EUROPEO,43.8066689,11.2930735,66
FIESOLE,FIESOLE FI,958828414,DORIN,43.7842043,11.3609171,1
FIGLINE E INCISA VALDARNO,FIGLINE E INCISA VALDARNO FI,907034876,SAITEC SRL,43.628890549999994,11.42476007455424,1
FILATTIERA,FILATTIERA,988828089,Alitec SRL,44.3275044,9.9315836,1
FINO MORNASCO,FINO MORNASCO CO,952900162,D-ORBIT SRL,45.7484502,9.0414707,3
FIORANO MODENESE,Fiorano Modenese,910480510,LB,44.536504550000004,10.827302142968357,1
FIORANO MODENESE,FIORANO MODENESE,915582031,NA,44.5484086,10.8543849,2
FIORANO MODENESE,FIORANO MODENESE,930512368,TOPJET,44.5620325,10.8116718,2
FIORANO MODENESE,FIORANO MODENESE,941386747,DEFSPA,44.539143,10.8118482,1
FIORANO MODENESE,FIORANO MODENESE,951760218,SG,44.5551759,10.823354,1
FIORANO MODENESE,FIORANO MODENESE (MO),918546642,GCO,44.53649275,10.827807288246454,2
FIRENZE,Firenze,937661656,FESTIVAL DEI POPOLI,43.7732685,11.253012872501184,1
FIRENZE,Firenze,943385141,NEMO srl,43.7698712,11.2555757,1
FIRENZE,Firenze,953490213,ER,43.80627335,11.23139413640399,1
FIRENZE,Firenze,975418421,F&M,43.7761906,11.2716235,1
FIRENZE,Firenze,989813803,IRIDRA,43.8083764,10.8884868,4
FIRENZE,Firenze,993275927,EBNeuro,43.8142832,11.2250742,1
FIRENZE,Firenze,996543760,OPD,43.7760846,11.2589307,3
FIRENZE,FIRENZE,900867713,NA,43.7910288,11.2273162,1
FIRENZE,FIRENZE,902778613,NA,43.8014584,11.2007188,1
FIRENZE,FIRENZE,904460108,WIVA,43.8420836,11.1966068,1
FIRENZE,FIRENZE,904886423,Nuovo Pignone Tecnologie s.r.l.,45.6106412,9.3251139,9
FIRENZE,FIRENZE,909966604,CFE,41.7074333,15.7326816,2
FIRENZE,FIRENZE,911741510,SILFIspa,43.7761906,11.2716235,1
FIRENZE,FIRENZE,915005948,DUIT,43.7698712,11.2555757,1
FIRENZE,FIRENZE,917068750,FONDAZIONE ITALIANA PER LA LOTTA ALLE MALATTIE CARDIOVASCULARI ONLUS HEART CARE FOUNDATION - HCF ONLUS,43.8014584,11.2007188,1
FIRENZE,FIRENZE,918989350,MCS,43.7698712,11.2555757,1
FIRENZE,FIRENZE,920390030,AUSLTC,43.7733835,11.259987473662667,2
FIRENZE,FIRENZE,922978087,Probiomedica,43.7649883,11.2371378,1
FIRENZE,FIRENZE,924556568,NA,43.7783844,11.2781514,1
FIRENZE,FIRENZE,924920512,NA,43.7761906,11.2716235,1
FIRENZE,FIRENZE,925696609,NA,43.7747538,11.219388,2
FIRENZE,FIRENZE,929764789,Cynny SpA,43.7823008,11.2595145,1
FIRENZE,FIRENZE,931970569,EFHA,43.8014584,11.2007188,1
FIRENZE,FIRENZE,932047005,L4T,43.7865409,11.2562839,1
FIRENZE,FIRENZE,934357642,CONFINDUSTRIA TOSCANA SERVIZI S.C.AR.L.,43.7790568,11.2485978,2
FIRENZE,FIRENZE,937362896,ASSOCIAZIONE CULTURALE PRISMA,43.7725682,11.2260079,2
FIRENZE,FIRENZE,937404509,FINDOMESTIC BANCA,43.7785815,11.2432515,1
FIRENZE,FIRENZE,938549206,CASA S.P.A.,43.7698712,11.2555757,4
FIRENZE,FIRENZE,938981438,Pnat,43.7861161,11.2538718,1
FIRENZE,FIRENZE,941198955,CONFINDUSTRIA TOSCANA,43.7698712,11.2555757,6
FIRENZE,FIRENZE,942409321,NUOVO PIGNONE,43.8030738,11.2295918,7
FIRENZE,FIRENZE,943286686,EUROTURBO,43.7698712,11.2555757,1
FIRENZE,FIRENZE,946267011,CITTA METROPOLITANA DI FIRENZE,45.01543145,7.541781112239546,1
FIRENZE,FIRENZE,947319461,Quadrifoglio,43.7692585,11.1987376,1
FIRENZE,FIRENZE,950066501,ALINARI,43.7762461,11.2507096,1
FIRENZE,FIRENZE,952240853,AZADORA,43.8014584,11.2007188,1
FIRENZE,FIRENZE,953500689,MATHEMA SRL,43.7765465,11.2159437,4
FIRENZE,FIRENZE,953625334,MAGENTA,43.7698712,11.2555757,1
FIRENZE,FIRENZE,954330330,LAMA,43.7744084,11.2566241,2
FIRENZE,FIRENZE,954359915,iTEM,43.5436518,11.0472418,1
FIRENZE,FIRENZE,960124431,IAA,43.7698712,11.2555757,1
FIRENZE,FIRENZE,961532483,PROMOFIRENZE,43.7698712,11.2555757,4
FIRENZE,FIRENZE,964122480,FRI,43.7778118,11.2594064,1
FIRENZE,FIRENZE,964480410,SISMEL,43.7731917,11.2437601,1
FIRENZE,FIRENZE,964812441,ASSOCIAZIONE NAZIONALE DEI COMUNI ITALIANI DELLA TOSCANA NATIONAL ASSOCIATION OF ITALIAN MUNICIPALITIES TUSCANY,43.7698712,11.2555757,2
FIRENZE,FIRENZE,969024472,COMUNE DI FIRENZE,43.7698712,11.2555757,7
FIRENZE,FIRENZE,969230015,DEDALUS,43.8014584,11.2007188,1
FIRENZE,FIRENZE,972357780,FST,43.7821318,11.2586017,3
FIRENZE,FIRENZE,972654406,WEST,43.7603774,11.2844715,1
FIRENZE,FIRENZE,982978407,RESOLVO,43.8014584,11.2007188,2
FIRENZE,FIRENZE,986546940,UNAAPI,45.8722163,9.6519732,1
FIRENZE,FIRENZE,995158018,SPIKE,43.7755996,11.2853885,3
FIRENZE,FIRENZE,996038002,INDIRE,43.8014584,11.2007188,2
FIRENZE,FIRENZE,996685089,IMSS,43.767613,11.25631566155708,1
FIRENZE,FIRENZE,997237601,REGIONAL ENVIRONMENT AGENCY FOR PROTECTION OF TUSCANY,43.8014584,11.2007188,1
FIRENZE,FIRENZE,997911072,ETA,43.7698712,11.2555757,16
FIRENZE,FIRENZE,998396945,ISPRO,43.8081425,11.2541739,3
FIRENZE,FIRENZE,998571739,CSGI,43.819886,11.1955382,13
FIRENZE,FIRENZE,998706472,FST,43.75119875,11.30564141517121,1
FIRENZE,FIRENZE,998778543,AOUMEYER,43.7698712,11.2555757,3
FIRENZE,FIRENZE,998823842,RT,43.7698712,11.2555757,13
FIRENZE,FIRENZE,999516810,CIRMMP,43.7778118,11.2594064,17
FIRENZE,FIRENZE,999639224,ARS,43.79388,11.2452167,2
FIRENZE,FIRENZE,999741559,Eurosportello Confesercenti,43.7946962,11.1958258,5
FIRENZE,FIRENZE,999991237,INSTM,43.7698712,11.2555757,17
FISCIANO,FISCIANO,917345685,"NARRANDO",40.7749041,14.7912331,2
FISCIANO,FISCIANO,931875315,ETUITUS,40.7791868,14.7803242,1
FISCIANO,FISCIANO,987544003,PRODAL,40.772812,14.799443,2
FISCIANO,FISCIANO SA,937960125,eProInn,40.780413,14.7706112,1
FISCIANO,FISCIANO SA,999899184,UNISA,40.780413,14.7706112,42
FIUME VENETO,FIUME VENETO,899074280,NA,45.6476663,11.8665254,1
FIUMICINO,FIUMICINO RM,970508475,ADR,41.81435465,12.226936957567165,1
FLERO,FLERO,898635549,NA,42.6384261,12.674297,1
FLORENCE,Florence,999895789,UNIFI,43.7778118,11.2594064,143
FLORENCE,FLORENCE,996654340,ITCF,43.7761535,11.2500584,1
FLORENCE,FLORENCE,998462905,ECNP S.C.A.R.L.,43.7761811,11.2659519,2
FOGGIA,FOGGIA,904888363,ConfagriFoggia,41.6373759,15.9286506,1
FOGGIA,FOGGIA,919720633,Tinada,41.4623447,15.5430624,2
FOGGIA,FOGGIA,924472954,O.P.CON.CER.,41.4623447,15.5430624,2
FOGGIA,FOGGIA,927720126,innovagritech srl,41.46493,15.5514271,2
FOGGIA,FOGGIA,938914023,Ce.R.T.A. scrl,41.4623447,15.5430624,1
FOGGIA,FOGGIA,999717794,DARe,41.4623447,15.5430624,4
FOGGIA,FOGGIA,999888514,UNIFG,41.4623447,15.5430624,6
FOGGIA,FOGGIA FG,926391420,NGW,41.4624517,15.5500994,1
FOLIGNO,FOLIGNO PG,972978192,UMBRA,42.9561825,12.703334,9
FONDI,FONDI,894005351,NA,42.9095416,10.8505441,1
FONDOTOCE,FONDOTOCE VB,965588344,ABICH,45.9406569,8.4657225,1
FORLI,FORLI,893345848,NA,44.1133303,12.4127986,1
FORLI,FORLI,904166780,NA,44.2171513,12.1142618,1
FORLI,FORLI,912142993,Spazi Indecisi,44.2029695,12.0316517,1
FORLI,FORLI,941512459,ROMAGNA TECH,44.2246723,12.2934906,2
FORLI,FORLI,985536006,SOFTER,44.2191667,12.1097907,5
FORLI,FORLI,997516767,COMUNE DI FORLI,44.2226537,12.0402718,1
FORLI,FORLI FO,952939932,A.I.C.CO.N.,42.6384261,12.674297,1
FORLÌ,Forlì,938705473,Atrium Association,45.6908285,8.8697826,1
FORMELLO,FORMELLO,906643190,BDP E&M,42.0515721,12.3999499,1
FORMELLO,FORMELLO,935716224,Solergy Italia,42.0515721,12.3999499,1
FORMELLO,FORMELLO,998157743,BIO,42.0515721,12.3999499,4
FORMIGINE,FORMIGINE,910463826,TECNO,45.6549067,8.2689254,3
FORMIGINE,FORMIGINE,928537060,OPOCRIN SPA,44.5835677,10.8320739,1
FOSSANO,FOSSANO CN,916915102,Polìpo Srl,44.5493489,7.7250155,1
FRASCATI,FRASCATI,893770029,NA,42.6384261,12.674297,1
FRASCATI,FRASCATI,896053506,DTT SC,41.8097622,12.6724264,1
FRASCATI,FRASCATI,912789692,NA,41.8082452,12.6803684,3
FRASCATI,FRASCATI,998519650,ASSOCIAZIONE FRASCATI SCIENZA,41.8062834,12.680414960117774,5
FRASCATI,FRASCATI,999992789,INFN,41.8118701,12.6745718,133
FRAZIONE RIVOTORTO,FRAZIONE RIVOTORTO,918924942,UBT SRL,43.0443848,12.6181987,4
FREGONA,FREGONA,916850015,Emo design,46.0002181,12.3389622,1
FRIGENTO,FRIGENTO (AVELLINO),926538569,C.D.B. S.R.L.,41.011319,15.099747,1
FROSINONE,FROSINONE,913902864,GA,41.722624,13.6079326,1
FROSINONE,FROSINONE,999446776,KLO,41.6225402,13.2827593,1
FUMANE,FUMANE,943897786,POLO EUROPEO DELLA CONOSCENZA EUROPOLE,45.5429525,10.8839737,3
FUNO DI ARGELATO,FUNO DI ARGELATO,905252210,EM,44.6099873,11.3611965,1
FUNO DI ARGELATO,FUNO DI ARGELATO,926953632,Materiko,44.593288,11.3670334,1
GAGGIO MONTANO,GAGGIO MONTANO,909789870,COMUR,44.2456933,10.9524591,1
GALATINA,GALATINA,912396260,Licofarma,42.6384261,12.674297,1
GALATINA,GALATINA LE,919813947,EMOTION SRL,43.0581002,12.5558625,9
GALLARATE,GALLARATE,903795076,SV,41.87180405,12.48719901421021,1
GALLARATE,GALLARATE,932252451,ARS,45.656897,8.7826947,1
GALLARATE,GALLARATE VA,903904201,HB Technology,45.6663072,8.7962391,1
GALLARATE,GALLARATE VA,938050529,MPG,45.6548742,8.8149407,1
GALLARATE,GALLARATE VA,938093209,PALU,45.6577866,8.7848045,2
GALLESE,GALLESE,920302536,NA,44.9223485,10.6568129,1
GALLIERA,GALLIERA BO,927087686,I.L.S.A spa,44.7446247,11.4515433,1
GAMBASSI TERME,GAMBASSI TERME,912508974,AZIENDA AGRICOLA CASA EMMA DI LEPRI FIORELLA,43.5391127,10.954075,1
GAMBETTOLA,GAMBETTOLA,966952455,SOLTIGUA,42.0812319,12.399500960006844,6
GANDINO,GANDINO,902663280,MAIS SPINATO DI GANDINO,42.6384261,12.674297,1
GARLASCO,GARLASCO PV,941834596,KERAPLAN,42.6384261,12.674297,1
GAVARDO BRESCIA,GAVARDO BRESCIA,929407247,FMG,45.5759694,10.4369339,1
GAZOLDO DEGLI IPPOLITI,GAZOLDO DEGLI IPPOLITI (MN),925407161,MARCOLD GROUP,45.200277,10.579383,2
GENOA,Genoa,888891919,NA,44.4127072,8.843503285615387,1
GENOA,Genoa,958050183,NA,44.40726,8.9338624,1
GENOVA,Genova,996565682,ALTRA,44.40726,8.9338624,6
GENOVA,GENOVA,890185879,GE.AM - Gestioni ambientali SpA,44.4015689,8.9316303,1
GENOVA,GENOVA,890259502,IL RASTRELLO SOC COOP,44.4282399,8.8560636,1
GENOVA,GENOVA,891514003,NA,44.4100057,8.9395389,1
GENOVA,GENOVA,891994347,OMNIA CONSORZIO SOCIALE,44.4084394,8.9598105,1
GENOVA,GENOVA,897122834,AC,44.4050951,8.9417841,1
GENOVA,GENOVA,897635285,START4.0,44.424039,8.8818669,1
GENOVA,GENOVA,900899626,BeD,44.4729919,8.8992707,4
GENOVA,GENOVA,902657460,NA,44.5842659,9.0223259,3
GENOVA,GENOVA,905168693,Fincosit S.r.l.,43.4465651,13.5056439,1
GENOVA,GENOVA,905493546,ZB,44.4037411,8.9421586,5
GENOVA,GENOVA,910508737,VE.CAM.,44.3996985,8.9361635,1
GENOVA,GENOVA,911828325,NA,44.41001435,8.94063193246702,3
GENOVA,GENOVA,913230654,NA,44.4259258,8.8634777,1
GENOVA,GENOVA,914626193,NA,44.4729919,8.8992707,1
GENOVA,GENOVA,915466310,"""Attilio Carmagnani """"AC"""" S.p.a""",44.4729919,8.8992707,1
GENOVA,GENOVA,915816383,R4L,44.4033149,8.9410227,2
GENOVA,GENOVA,916154234,DUFERCO ENERGIA,44.40726,8.9338624,3
GENOVA,GENOVA,916966512,JOB CENTRE,44.56994645,8.977244894819435,1
GENOVA,GENOVA,917717971,LIAG SPA,44.4100057,8.9395389,1
GENOVA,GENOVA,917805659,Deref,44.3970256,8.945996,1
GENOVA,GENOVA,918143316,OMS,44.4729919,8.8992707,1
GENOVA,GENOVA,920233084,COLOUREE,44.4020855,8.9429855,1
GENOVA,GENOVA,920563369,BRU,44.4030684,8.9837552,1
GENOVA,GENOVA,923455327,NA,44.4044087,8.9408449,1
GENOVA,GENOVA,923934216,NA,44.4729919,8.8992707,1
GENOVA,GENOVA,926167932,ACTIVE CELLS SRL,44.4290919,8.8254461,1
GENOVA,GENOVA,926188302,ECOLEGNO GENOVA SRL,44.40726,8.9338624,1
GENOVA,GENOVA,927157720,GLOBI HI-TECH,44.3988938,8.9343246,1
GENOVA,GENOVA,927690832,SWHARD,44.4729919,8.8992707,1
GENOVA,GENOVA,928378271,SUNIA,44.4152455,8.9256873,1
GENOVA,GENOVA,928420757,A.R.T.E.,44.4019278,8.9412641,1
GENOVA,GENOVA,929055331,Ebit,44.4159719,8.8609123,2
GENOVA,GENOVA,932080179,A.LI.SA.,44.4022535,8.9437238,1
GENOVA,GENOVA,933220705,Artys Srl,44.4038767,8.9447674,1
GENOVA,GENOVA,935223561,FAIMM,44.39857505,8.95812657891244,2
GENOVA,GENOVA,935361204,CCIAA GE,45.9797735,13.2001158,4
GENOVA,GENOVA,935873849,Eurochem Italia,44.431714,8.862113,1
GENOVA,GENOVA,936388240,SedApta S.r.l.,44.40726,8.9338624,1
GENOVA,GENOVA,936508229,IRE Spa,44.4103704,8.9432241,3
GENOVA,GENOVA,936556535,AMT SPA,44.4175405,8.946991,2
GENOVA,GENOVA,940950635,QUI! GROUP,44.40726,8.9338624,1
GENOVA,GENOVA,944666220,Techcom,44.4729919,8.8992707,1
GENOVA,GENOVA,949733403,TLAB,44.40726,8.9338624,3
GENOVA,GENOVA,951117011,LIGURIAN REGIONAL AGENCY FOR ENVIRONMENTAL PROTECTION AGENCE REGIONALE ENVIRONNEMENT,44.4112958,8.8841964,2
GENOVA,GENOVA,951387738,T.I.C.A.S.S.,44.405072,8.9416003,5
GENOVA,GENOVA,951506757,FISM,44.4114691,8.8830333,3
GENOVA,GENOVA,951668747,SDR,44.40726,8.9338624,1
GENOVA,GENOVA,952351142,ON AIR S.R.L.,44.4003145,8.9478756,1
GENOVA,GENOVA,952409827,MICAMO,44.3081087,9.3453514,1
GENOVA,GENOVA,952531562,RULEX,44.4097124,8.9450404,4
GENOVA,GENOVA,952925673,FILSE,44.4180619,8.86773944547003,1
GENOVA,GENOVA,953863275,ARCHIMEDE,44.4729919,8.8992707,1
GENOVA,GENOVA,959034442,IRCCS OSPEDALE POLICLINICO SAN MARTINO,44.4073373,8.9695006,7
GENOVA,GENOVA,959124458,AMIU GENOVA SPA,44.9309689,9.0117662,2
GENOVA,GENOVA,960086407,SEASTEMA,44.4729919,8.8992707,2
GENOVA,GENOVA,961358465,EOG,44.398074,8.9425633,1
GENOVA,GENOVA,965730352,CAMPI,44.40726,8.9338624,1
GENOVA,GENOVA,968352165,ASG,44.40726,8.9338624,6
GENOVA,GENOVA,968424139,CAMELOT,44.40726,8.9338624,3
GENOVA,GENOVA,968582152,GRUPPO SIGLA,44.40726,8.9338624,2
GENOVA,GENOVA,969440408,CHIO,44.40726,8.9338624,1
GENOVA,GENOVA,975182420,IIS,44.4234181,8.9482069,1
GENOVA,GENOVA,988730022,FESTIVAL DELLA SCIENZA,44.40726,8.9338624,1
GENOVA,GENOVA,990822021,RINA,44.4000905,8.9365357,24
GENOVA,GENOVA,991672808,ETT SPA,44.4236829,8.8534848,7
GENOVA,GENOVA,996097851,Regione Liguria,44.4052218,8.9365696,6
GENOVA,GENOVA,996232972,M3S,44.4729919,8.8992707,1
GENOVA,GENOVA,996561220,Sanitrade,44.3626996,9.142174,1
GENOVA,GENOVA,996793923,STAM,44.4069196,8.9353921,12
GENOVA,GENOVA,997336638,CETENA SPA,44.4034068,8.9403647,8
GENOVA,GENOVA,998167443,ANN,44.4275411,8.8876263,6
GENOVA,GENOVA,998295095,CDG,44.41152365,8.93253007161658,9
GENOVA,GENOVA,998354459,AEN,44.40726,8.9338624,5
GENOVA,GENOVA,998374053,GT,44.4094513,8.9448857,5
GENOVA,GENOVA,998752062,BIOR,44.40726,8.9338624,1
GENOVA,GENOVA,998801823,ASTS,42.9184511,10.7618132,36
GENOVA,GENOVA,998804830,RINA,44.3992676,8.9356362,1
GENOVA,GENOVA,998914149,GISIG,44.4481358,8.9696081,3
GENOVA,GENOVA,999448037,ISTITUTO GIANNINA GASLINI,44.3915258,8.9883856,5
GENOVA,GENOVA,999596447,IIT,44.4730202,8.9058798,203
GENOVA,GENOVA,999724972,GAIA,44.4020855,8.9429855,3
GENOVA,GENOVA,999892200,UNIONCAMERE LIGURIA,44.407857,8.930349,3
GENOVA,GENOVA,999951467,RINA-C,44.3975723,8.9565548,140
GENOVA,GENOVA,999976687,UNIGE,44.4152455,8.9256873,107
GENOVA,GENOVA GE,905241346,Lavind,44.4729919,8.8992707,1
GENOVA,GENOVA GE,908407232,Neosoft Srl,44.4729919,8.8992707,1
GENOVA,GENOVA GE,916965542,STAM SRL,44.4022827,8.9452222,43
GENOVA,GENOVA GE,938084285,ADVANCED MICROTURBINES,44.4053441,8.9435507,2
GENOVA,GENOVA GE,941009514,TB,44.40726,8.9338624,2
GENOVA,GENOVA GE,952344061,TOSHIBA,44.4729919,8.8992707,1
GENOVA,GENOVA GE,953750464,SPES,44.4094243,8.9294724,2
GENOVA,GENOVA GE,968519975,UBICA,44.40726,8.9338624,1
GENOVA,GENOVA GE,970644469,SIIT,44.40726,8.9338624,2
GENOVA,GENOVA GE,999782008,AITEK SPA,44.4505423,9.3230363,10
GENZANO DI ROMA,GENZANO DI ROMA,919833638,AUGEAS,41.7200217,12.7133951,2
GERENZANO,GERENZANO (VA),904738207,GDM,45.6342247,9.0119115,2
GERENZANO,GERENZANO (VARESE),934014844,GEXNANO S.R.L.,45.639673,9.00104,1
GESSATE,Gessate,888889342,NA,45.4667971,9.1904984,1
GHIARONI,GHIARONI,937243586,HYDRA,44.6462466,11.6536816,2
GIACCIANO CON BARUCHELLA,GIACCIANO CON BARUCHELLA (RO),932634243,XTS,45.0615598,11.4289297,2
GINEPRI,GINEPRI,998441274,"Refa Med srl,",40.922783,9.4912152,1
GIUGLIANO IN CAMPANIA,GIUGLIANO IN CAMPANIA,926360671,GMA,40.9286872,14.2006989,1
GIUSSANO,GIUSSANO (MB),905122521,MAURI,45.9871135,9.2621754,1
GOGLIANO REDIPUGLIA,GOGLIANO REDIPUGLIA GO,952081094,ITS ENERGY,43.8920042,10.2253055315491,1
GOLFO ARANCI,GOLFO ARANCI SS,921075626,CIR,40.9881678,9.55578422854934,1
GORGONZOLA,GORGONZOLA,935180493,NA,45.52641215,9.395655797109685,1
GORIZIA,GORIZIA,954860241,NA,45.9414883,13.6220209,1
GORIZIA,GORIZIA,998222345,ISIG,45.9441278,13.6252288,4
GORIZIA,GORIZIA,999675793,SDAG,42.6384261,12.674297,1
GOTTOLENGO,GOTTOLENGO,903143139,TRAP,42.6384261,12.674297,1
GRADISCA D ISONZO,GRADISCA D'ISONZO,898617992,Ener.Gi,45.889057,13.5021954,1
GRADO,GRADO (GORIZIA),893981489,NA,45.9527602,13.6151217,1
GRANAROLO DELL EMILIA,GRANAROLO DELL EMILIA BO,934658148,Rebernig,42.6384261,12.674297,1
GRASSOBIO,GRASSOBIO,950921362,BERGAMO TECNOLOGIE,45.6589551,9.7031889,1
GRAVINA DI CATANIA,GRAVINA DI CATANIA,918498433,FONTE NUOVA,37.5603691,15.0617632,1
GRESSAN,Gressan,940702703,Ad Hoc 3D Solutions s.r.l.,42.6384261,12.674297,1
GREZZANA,GREZZANA,925680604,Ferdiam Srl,45.5231771,11.0182486,1
GROSSETO,GROSSETO,905059277,NA,42.776361800000004,11.115802935945496,1
GROSSETO,GROSSETO,913792866,PARCO DELLA MAREMMA,42.6384261,12.674297,1
GROSSETO,GROSSETO,915235159,UP,42.6384261,12.674297,1
GROTTAFERRATA,GROTTAFERRATA,937213225,CONSORZIO HYPAZIA,42.6384261,12.674297,1
GROTTAFERRATA,GROTTAFERRATA,962922493,VIA,41.788616,12.6667408,2
GRUGLIASCO,GRUGLIASCO,998080143,COMAU,45.05148535,7.57522382355026,17
GRUGLIASCO,Grugliasco (TO),941120094,Horizon Srl,45.0557729,7.586649,1
GUALDO CATTANEO,GUALDO CATTANEO PG,898465217,ELEVALE,42.6384261,12.674297,1
GUARDIA LOMBARDI,GUARDIA LOMBARDI AV,891925865,NA,40.953719,15.20885,1
GUASTALLA,GUASTALLA,898452510,SIME,44.9181334,10.733851,1
GUASTALLA,GUASTALLA,913998603,IRRILAND SRL,44.9211516,10.6539985,2
GUBBIO,Gubbio,941380248,CVR,43.3517882,12.5772674,1
GUBBIO,GUBBIO,935603122,COLACEM SPA,43.3517882,12.5772674,1
GUBBIO,GUBBIO,939994991,Gubbio,43.3533594,12.5789285,1
GUBBIO,GUBBIO,943649854,ECOAZIONI,43.3517882,12.5772674,2
GUIDONIA MONTECELIO,GUIDONIA MONTECELIO,922493960,ALMA,41.982798,12.6948041,1
GUIDONIA MONTECELIO,GUIDONIA MONTECELIO RM,929808827,CECOM,41.982798,12.6948041,1
GUIDONIA MONTECELIO,GUIDONIA MONTECELIO RM,952884254,ALMA,41.9702583,12.7085376,8
GUSSAGO,GUSSAGO,911127306,NEWMEC,45.5913264,10.152020202254713,1
GUSSAGO,Gussago (Brescia),936515213,Alpha Progetti,45.5595104,10.1557157,1
HAMLET BELLOCCHI,HAMLET BELLOCCHI,902511378,NA,42.6384261,12.674297,2
IMBERSAGO,Imbersago,915515392,Studio Ing. Banfi SAS,39.8455865,16.4556082,1
IMOLA,IMOLA,897064149,CEFLA,44.3691716,11.728994,1
IMOLA,IMOLA,907960741,SKANERGY,44.3570552,11.7053433,1
IMOLA,IMOLA,915346903,italianaSoftware,44.3544809,11.7182736,1
IMOLA,IMOLA,927608673,EUREK SRL,44.3427062,11.755113,1
IMOLA,IMOLA,949394291,Remembrane,44.3776562,11.736259,1
IMOLA,IMOLA,965226437,SACMI IMOLA,44.36560365,11.730524133784254,3
IMOLA,IMOLA (BO),907380875,IPREL PROGETTI,44.3723648,11.719792,1
IMOLA,IMOLA BO,901219532,UNICOOP,44.4017695,11.7446024,1
IMOLA,IMOLA BO,922750816,SACMI FORNI,44.3535145,11.7141233,1
IMOLA,IMOLA BO,927163637,COGNETEX,44.3535145,11.7141233,2
IMPERIA,IMPERIA,928914390,ARTE - AZIENDA REGIONALE TERRITORIALE PER L'EDILIZIA,43.8862958,8.0267106,1
INARZO,INARZO,927307294,MOGU,45.7853157,8.7344749,7
INVERUNO,INVERUNO,900060479,MCR,42.6384261,12.674297,1
INVERUNO,INVERUNO,985232105,Delco,42.6384261,12.674297,1
INZAGO,INZAGO,916589570,Next Industries S.r.L,42.6384261,12.674297,1
ISPRA,Ispra,888891176,NA,42.6384261,12.674297,1
ISPRA,Ispra,888892911,NA,42.6384261,12.674297,1
IVREA,IVREA,917014818,ADRIANO OLIVETTI FOUNDATION,45.4523793,7.8645321,1
IVREA,IVREA,922769343,VODAFONE,45.4673791,7.874797,1
JESI,JESI,915434688,COOPERLAT,42.6384261,12.674297,1
JESI,JESI,933871769,QuinoaMarche srls,42.6384261,12.674297,1
JESI,JESI,934804521,BIMIND SAS,43.5325495,13.2552882,1
JESI,JESI,934919078,DIATECH PHARMACOGENETICS S.R.L.,43.5219801,13.2443764,1
JESI,JESI,942953879,Eurocentro,43.5246127,13.2531643,2
JESI,JESI AN,916834301,PIERALISI MAIP,43.5373945,13.2635141,1
L AQUILA,L'Aquila,993174077,WEST,42.3514229,13.3555268,4
L AQUILA,L'Aquila,994604051,REABR,42.36595,13.37404,2
L AQUILA,L'AQUILA,891473651,CCIAAGS,42.250967,13.6732526,2
L AQUILA,L'AQUILA,891482866,ATER AQ,42.3492149,13.396991328473893,1
L AQUILA,L'AQUILA,896255266,NA,42.3673643,13.480124699008579,1
L AQUILA,L'AQUILA,907568861,NA,42.3492149,13.396991328473893,1
L AQUILA,L'AQUILA,917519994,GSSI,42.3437046,13.3962174,8
L AQUILA,L'AQUILA,927703830,R13 TECHNOLOGY,42.348903,13.3981527,1
L AQUILA,L'AQUILA,934717609,SMARTLY SRL,42.3675548,13.3469609,1
L AQUILA,L AQUILA,961032351,SEA,45.0297323,7.265821,1
L AQUILA,L AQUILA,991972053,CREO,45.0297323,7.265821,4
L AQUILA,L AQUILA,999671234,ITA,42.3492149,13.396991328473893,1
L AQUILA,L AQUILA,999859511,UNIVAQ,42.35199475,13.3966387269555,37
LA SAPEZIA,LA SAPEZIA,928935051,A.R.T.E. LA SPEZIA,42.6384261,12.674297,1
LA SPEZIA,LA SPEZIA,912347081,ADSPMLO,44.107033,9.8282255,3
LA SPEZIA,LA SPEZIA,918165917,TECLAB - SRL,44.107033,9.8282255,2
LA SPEZIA,LA SPEZIA,971896351,DLTM SCRL,44.107033,9.8282255,2
LA SPEZIA,LA SPEZIA SP,900986344,Zephyr Trading,44.0946823,9.824783209465657,1
LA SPEZIA,LA SPEZIA SP,950641032,SAT,44.0946823,9.824783209465657,1
LACEDONIA,LACEDONIA AV,953747360,OMI SRL,41.051222,15.423854,5
LAINATE,LAINATE,891812666,NA,42.6384261,12.674297,5
LAINATE,LAINATE,904272316,ROTOPRINT,45.3069684,10.3279561,1
LAINATE,LAINATE,935377985,ECODOM,45.5621826,9.0282085,8
LAINATE,LAINATE (MI),999590530,SAES,45.5742396,9.0178072,3
LAMEZIA TERME,LAMEZIA TERME,944025147,UNIONCAMERE CALABRIA,38.9172796,16.2550185,4
LAMEZIA TERME,LAMEZIA TERME,999576950,BIOAGE,38.9719479,16.3159323,5
LAMPEDUSA,LAMPEDUSA,907223638,MUNICIPALITY OF LAMPEDUSA AND LINOSA,35.511134150000004,12.59629135962961,1
LANCIANO,LANCIANO,898836921,ATER LANCIANO,42.2273728,14.3971644,1
LANCIANO,LANCIANO,944224288,Oncoxx biotech,42.2305316,14.3907794,1
LANGHIRANO,LANGHIRANO,930028144,CA-MI srl,44.6130645,10.2661136,1
LANGHIRANO,LANGHIRANO PR,916270246,ACEL,47.0407407,12.1058909,1
LARINO,LARINO CB,951906203,SACOM LAB SPA,41.8055672,14.9210984,1
LATINA,LATINA,907414534,PROVIDES,41.9531955,12.0745092,1
LATINA,LATINA,951901644,ACQUALATIN,41.46075275,12.88865316379816,1
LATINA,LATINA LT,902377615,ADL,41.4672589,12.9035737,1
LAURIA,LAURIA PZ,913560454,EVRA S.R.L,40.0473512,15.8365953,1
LAVAGNA,LAVAGNA,983010417,AQUA,44.3121536,9.3417059,1
LECCE,Lecce,888897025,NA,40.35178165,18.169364422051988,1
LECCE,Lecce,934862333,TYPEONE S.R.L.,40.35178165,18.169364422051988,1
LECCE,LECCE,899690618,Qoowear,40.35178165,18.169364422051988,1
LECCE,LECCE,917335209,Meditek,40.35178165,18.169364422051988,1
LECCE,LECCE,917772194,CATMARINE,40.3570373,18.1718482,2
LECCE,LECCE,919357368,FABLAB Lecce,40.335126,17.965219,1
LECCE,LECCE,927745443,AMOLAB,40.4342703,18.0316956,1
LECCE,LECCE,937960707,MICAD,40.216553,17.9244967,1
LECCE,LECCE,938123085,Naica,40.3504712,18.1740247,2
LECCE,LECCE,946150029,SUD-EST,40.35178165,18.169364422051988,1
LECCE,LECCE,960216387,ML,40.3222431,18.1004192,4
LECCE,LECCE,999419422,FONDAZIONE CMCC,41.2392104,16.5091653,78
LECCE,LECCE,999537374,BTG,40.216554,17.924486,1
LECCE,LECCE,999705669,DTH,40.3570373,18.1718482,2
LECCE,LECCE,999863585,UNILE,40.3570373,18.1718482,33
LECCE,LECCE LE,905889112,BionIT Labs,40.35178165,18.169364422051988,1
LECCO,LECCO,918500470,ASST,45.9961707,9.331591087659326,1
LECCO,LECCO,936500663,SINNOTECH,45.8525607,9.3955369,1
LECCO,LECCO,938467047,NA,42.6384261,12.674297,1
LECCO,LECCO LC,999469377,TTS,45.8530825,9.3994261,18
LEGNANO,LEGNANO,912039979,E-WENCO SRL,45.5839746,8.9165711,1
LEGNANO,LEGNANO,922694847,NA,45.5944434,8.9118414,1
LEGNANO,LEGNANO,929791949,CASTELLANZA ENGINEERING SRL,45.5980006,8.903079,1
LEGNANO,LEGNANO,936506968,VR,45.5865377,8.8875432,1
LEGNANO,LEGNANO,996465772,Nearchimica,45.5680398,8.9200745,1
LEGNANO,LEGNANO MI,938049850,Color System,45.61537,8.93568019279123,1
LEGNANO MILANO,LEGNANO MILANO,905907154,ERF,45.5842902,8.9111413,2
LEGNARO,LEGNARO,902828956,UNICARVE - BEEF PRODUCERS ASSOCIATION,42.6384261,12.674297,1
LEGNARO,LEGNARO,912787849,VENETO REGION'S AGENCY FOR INNOVATION IN THE PRIMARY SECTOR,45.3456489,11.9641925,3
LEGNARO,LEGNARO,913750865,SIVTRO VSF I,40.646125749999996,15.808578573475373,1
LEGNARO,LEGNARO,997383489,IZSVE,45.3456489,11.9641925,8
LIMATOLA,LIMATOLA,953993061,PWF,42.6384261,12.674297,1
LIMENA,LIMENA,924912461,BED,45.45678935,11.848218152493242,1
LIPOMO,LIPOMO CO,952105926,IDP,45.7915381,9.1213621,1
LIPPO DI CALDERARA DI RENO,LIPPO DI CALDERARA DI RENO BO,954309960,DLIPTECH,44.53974185,11.3098163057468,2
LISSONE,LISSONE,935080874,EGIMOTORS,45.6060925,9.2392947,1
LISSONE,LISSONE,996260908,MXL,45.6107705,9.2408409,1
LIVIGNO,LIVIGNO,917848630,ALPSOLUT SRL,46.5378006,10.1363165,1
LIVORNO,Livorno,936142636,ETA S.R.L.,43.5426309,10.3160295,1
LIVORNO,LIVORNO,893663911,NA,43.5500297,10.3385053,1
LIVORNO,LIVORNO,900903603,E-REPAIR,43.5507411,10.3091456,1
LIVORNO,LIVORNO,902195158,ARETUSA,43.5580359,10.3088874,2
LIVORNO,LIVORNO,913501187,ASA,43.5572262,10.3093843,1
LIVORNO,LIVORNO,951586879,INNOLABS SRL,43.5676342,10.3397918,2
LIVORNO,LIVORNO,992175947,AUTORITA DI SISTEMA PORTUALE DEL MAR TIRRENO SETTENTRIONALE,43.5546143,10.3069875,5
LIVORNO,LIVORNO,997363604,KI,42.6384261,12.674297,1
LIVORNO,LIVORNO,997535003,CIBM,43.30095035,10.4917770391648,2
LIVORNO,LIVORNO,998685714,Flyby,43.5426309,10.3160295,1
LIVORNO,LIVORNO,999435524,LAVIOSA,43.5507411,10.3091456,1
LIVORNO,LIVORNO,999604789,QUANTAVIS,43.5271505,10.3153836,6
LIVORNO,LIVORNO,999711586,MEMEX S.R.L.,43.548624,10.309665,6
LIVORNO,LIVORNO,999726621,WISER,43.5509598,10.3078349625,1
LIVORNO,LIVORNO (LI),909450855,NEST,43.5849546,10.3150894,1
LIVORNO FERRARIS,LIVORNO FERRARIS,904384545,NA,43.5507411,10.3091456,1
LODI,Lodi,997174260,FPTP,45.3138959,9.503263,3
LODI,LODI,917939810,ICONS,45.3138959,9.503263,24
LODI,LODI,919582893,SOIA ITALIA,45.2961262,9.371647199999998,1
LODI,LODI,950408620,CIB,45.3138959,9.503263,5
LODI,LODI,952129691,IpadLab,45.3034736,9.4787023,1
LODI,LODI,999698394,PTP,45.3138959,9.503263,3
LOMAGNA,LOMAGNA,920060424,ELE,45.6716388,9.3806307,1
LOMAZZO,LOMAZZO,889711355,NA,45.7001518,9.03346713117748,1
LOMAZZO,LOMAZZO,896334515,NA,42.6384261,12.674297,1
LOMAZZO,LOMAZZO,952724689,GRED,45.6964688,9.0359357,5
LOMAZZO,LOMAZZO,985646392,COELUX,45.6992402,9.0343597,1
LOMAZZO,LOMAZZO CO,930147454,Silk Biomaterials,45.6964688,9.0359357,1
LOMAZZO,LOMAZZO CO,997405023,SYNESIS,45.6964688,9.0359357,13
LONDA,LONDA (FI),950521043,NA,43.8605674,11.5668116,1
LONGIANO,LONGIANO,951007789,NA,42.6384261,12.674297,1
LOVADINA DI SPRESIANO,LOVADINA DI SPRESIANO TV,949398462,CONTARINA SPA,45.7662522,12.2750057,1
LUCCA,LUCCA,913227647,ADBS,43.8394033,10.5017847,1
LUCCA,LUCCA,916623617,CODI,43.8428381,10.502876,2
LUCCA,LUCCA,939053024,NINE S.R.L.,43.84062795,10.506053189376832,2
LUCCA,LUCCA,950839591,COMUNE DI LUCCA,43.8441319,10.500448,3
LUCCA,LUCCA,952787933,ODYS,43.8428381,10.502876,4
LUCCA,LUCCA,953735235,MICHELOTTI,43.850414,10.512867,1
LUCCA,LUCCA,957340434,Provincia di Lucca,43.8428381,10.502876,1
LUCCA,LUCCA,965146412,IMT LUCCA,43.8428381,10.502876,14
LUCCA,LUCCA,986454402,MAIOR,43.8428381,10.502876,1
LUCCA,LUCCA,994206060,Lucense,44.017763900000006,10.454430026192636,1
LUCCA,LUCCA LU,941568040,LUCCA COMICS & GAMES SRL,43.84062795,10.506053189376832,1
LUGO,LUGO,901124472,CBRO,43.4675126,11.147379306359046,1
LUGO,LUGO,916526908,SABIOMATERIALS,44.4188572,11.9130018,3
LUGO DI GREZZANA,LUGO DI GREZZANA,921070291,DELLAS,45.576647,11.0079656,1
LUNANO,LUNANO,910418333,MORETTI COMPACT SPA,43.7282378,12.4280971,1
LURATE CACCIVIO,LURATE CACCIVIO,904244089,CREAZIONI DIGIT,45.7641976,9.0084835,1
LURATE CACCIVIO,LURATE CACCIVIO,930085277,ALEPH,45.7590781,8.9964577,1
LUZZARA,LUZZARA RE,914009079,SIMOL SPA,44.9769816,10.7236004,2
LUZZARA,LUZZARA RE,920966501,BINACCHI SRL,44.9433564,10.7073162,1
MACCASTORNA,MACCASTORNA,896476426,NA,42.6384261,12.674297,1
MACERATA,MACERATA,960068462,UNIMC,42.6384261,12.674297,11
MADRUZZO,MADRUZZO,891614689,NA,46.0439503,10.9564901,1
MAGENTA,MAGENTA,936695439,STF,45.4653931,8.8838429,1
MAGIONE,MAGIONE,951398214,CM-ACT,43.1386754,12.2051312,1
MAIOLATI SPONTINI,MAIOLATI SPONTINI AN,972374173,LOC,43.477658,13.121768,1
MALALBERGO,MALALBERGO BO,948064130,Fieni Giovanni,44.6886665,11.4677056,1
MALE,MALE,958182394,UH,46.3516068,10.9128757,4
MALÈ,Malè (TN),941680657,EYE-TECH srl,46.6706634,11.1643469,1
MALGESSO,Malgesso,895942732,NA,42.6384261,12.674297,1
MALNATE,MALNATE,989699731,KTEDO,42.6384261,12.674297,1
MANDURIA,MANDURIA (TA),992104070,NOVOTECH,40.401825,17.633511,4
MANTA,MANTA CN,910981806,Agrion,44.6158717,7.4870199,1
MANTOVA,Mantova,916566581,EUROFINESTRA,45.1566683,10.7917191,2
MANTOVA,MANTOVA,914623574,ASST di Mantova,45.1566683,10.7917191,3
MANTOVA,MANTOVA,938221540,ABACO,42.6384261,12.674297,2
MANTOVA,MANTOVA,996362855,MANT,45.3005245,10.8118096649227,3
MAPELLO,MAPELLO,906442400,GFM,45.1116415,7.6778214,1
MARGHERA VENEZIA,MARGHERA VENEZIA,999734478,UCV EIC,45.4758097,12.2247811,7
MARGHERA VENEZIA,MARGHERA VENEZIA VE,925196865,ZANARDO SPA,46.0634632,13.2358377,1
MARIANO COMENSE,MARIANO COMENSE,895867751,NA,45.6971486,9.1783439,1
MARIANO COMENSE,MARIANO COMENSE,899912845,Quantia,45.6971486,9.1783439,1
MARIANO COMENSE,MARIANO COMENSE CO,915570973,Compendia,45.7029754,9.1723313,1
MARNATE,MARNATE,907448872,Soft Chemicals,44.0694246,10.0821359,1
MAROSTICA,MAROSTICA VI,950352748,VIMAR,45.73407585,11.6525592056752,2
MARSCIANO,MARSCIANO,916686667,ENPROJECT S.R.L,42.6384261,12.674297,1
MARTIGNACCO,MARTIGNACCO UD,924308151,LEM,46.0896356,13.186017660824874,1
MARTINENGO,MARTINENGO (BG),909465211,DIAPATH SPA,45.5703685,9.767376,2
MARZABOTTO,MARZABOTTO,948077419,MONTE,44.3123251,11.1965128,1
MARZABOTTO,MARZABOTTO,953659187,DISMECO,44.3662072,11.217614,1
MASATE,MASATE,906925363,NA,45.5616749,9.4566321,1
MASATE,MASATE,911090640,SISGEO SRL,42.6384261,12.674297,1
MASI SAN GIACOMO,Masi San Giacomo,935860657,VetroresinaSpa,44.7573489,11.7986864,1
MASSA LOMBARDA,Massa Lombarda,986352067,CSP,44.447386,11.8260915,2
MASSA LOMBARDA,MASSA LOMBARDA,891513712,NA,44.4477623,11.8087294,1
MASSA MARTANA,MASSA MARTANA,905467647,KENOSISTEC,42.773137,12.524966,1
MASSA MARTANA,MASSA MARTANA,986013343,ASE,42.773137,12.524966,2
MASSA MARTANA,MASSA MARTANA PG,918350120,TURBOALGOR SRL,42.773137,12.524966,1
MASSAFRA,MASSAFRA (TA),905025812,BETTERY SRL,40.5860784,17.1189109,1
MASSAROSA,Massarosa,944548559,Ivtech,43.8373447,10.3624746,3
MATERA,Matera,895616812,NA,40.647588400000004,16.703758705879565,1
MATERA,MATERA,889576913,APPLICA SRL,40.6739803,16.5742949,1
MATERA,MATERA,938463458,AZIENDA SANITARIA LOCALE DI MATERA,40.668523,16.601585,1
MATERA,MATERA,951314115,ALSIA,40.668523,16.601585,2
MATERA,MATERA,952599753,DIAN,40.647588400000004,16.703758705879565,1
MATERA,MATERA,954440813,Provincia di Matera,40.6625449,16.6100482,1
MATERA,MATERA,991678046,E-GEOS,40.668523,16.601585,11
MATERA,MATERA MT,950643166,MATERAHUB,40.647588400000004,16.703758705879565,2
MEDA,MEDA,935817783,POZ,45.6610921,9.1553833,1
MEDA,MEDA (MB),967204461,HOLONIX,39.8092514,15.7901188,24
MEDE,MEDE,972802428,STELAR,45.1013504,8.7255266,3
MEDICINA,MEDICINA,934194585,POLYCRYSTALLINE,45.72439265,9.146559799999999,1
MEDICINA BOLOGNA,MEDICINA BOLOGNA,952597134,HYDRO ITAL,44.478669,11.638119,1
MEDOLE,MEDOLE,904067161,MARTINI,42.6384261,12.674297,1
MEDOLLA,MEDOLLA,960208142,MEDICA SPA,44.8479276,11.0600742,3
MEDOLLA,MEDOLLA (MO),924901694,Rigenerand SrL,44.8417865,11.0575745,1
MELDOLA,MELDOLA,998400534,IRST,44.1252926,12.0632802,2
MELFI,MELFI,952173050,MA SPA,41.0720883,15.7152616,2
MELZO,MELZO,928847363,CSI,42.6384261,12.674297,1
MELZO,MELZO,937286072,SEACON LOGISTICS SRL,45.493211,9.4082854,1
MERANO,MERANO,912734111,ASM Merano,46.6720543,11.1519044,1
MERANO,MERANO,944300821,STADTGEMEINDE MERANO,46.6695547,11.1594185,2
MERATE,MERATE,941148418,LTCALCOLI,45.698679,9.411648,1
MERCOGLIANO,MERCOGLIANO,899260908,NA,42.6384261,12.674297,1
MERONE,MERONE,928999265,LIFEGATE RADIO,43.8178485,7.7793761,1
MESAGNE,MESAGNE,915954608,Pro Medicare,42.6384261,12.674297,1
MESAGNE,MESAGNE BR,986233436,ISBEM SCaRL EUROMEDITERRANEAN SCIENTIFIC BIOMEDICALINSTITUTE,40.558829,17.808313,1
MESSINA,MESSINA,910451992,Alma Digit,38.249076,15.6496334,1
MESSINA,MESSINA,911836279,NA,38.249076,15.6496334,1
MESSINA,MESSINA,950541801,MUNICIPALITY OF MESSINA,38.249076,15.6496334,1
MESSINA,MESSINA,970428450,INNOVA BIC,38.1778364,15.552709,5
MESSINA,MESSINA,998815888,AQUA,38.1294924,15.1193817,1
MESSINA,MESSINA,998833348,SITUS,38.1844776,15.3713403,1
MESSINA,MESSINA,999596350,NEUROLESI,38.249076,15.6496334,1
MESSINA,MESSINA,999662601,UNIME,38.1937571,15.5542082,17
MEZZOLOMBARDO,MEZZOLOMBARDO,969027576,NOVAGENIT SRL,46.203852,11.0976153,1
MEZZOLOMBARDO,MEZZOLOMBARDO TN,973618489,SPR,46.203852,11.0976153,16
MILAN,Milan,888890432,NA,45.4667971,9.1904984,1
MILAN,Milan,938034718,AppsBuilder,45.4604108,9.1929823,1
MILAN,Milan,953370321,Systematica S.r.l.,45.4768736,9.1862351,1
MILAN,Milan,996646968,SC,45.4797745,9.1621202,2
MILAN,Milan,998538759,INT,45.4667971,9.1904984,17
MILAN,MILAN,893249915,ECO,45.4861894,9.1738635,6
MILAN,MILAN,897111873,FIPER,45.4841634,9.2066885,1
MILAN,MILAN,898937995,SINI,45.4830605,9.1443084,1
MILAN,MILAN,915440702,Agile Lab,45.572585000000004,8.925913720628149,1
MILAN,MILAN,924147422,HIANTIS,45.4633917,9.1399166,1
MILAN,MILAN,933772732,AFIL,45.4667971,9.1904984,4
MILAN,MILAN,942579847,Lofarma,45.4441958,9.167474,1
MILAN,MILAN,951679805,REMEDIA,45.486639,9.173846,4
MILAN,MILAN,991450096,PRYSMIAN,45.5214956,9.2124454,1
MILANO,Milano,888891450,NA,45.4667971,9.1904984,1
MILANO,Milano,888895595,NA,45.4667971,9.1904984,1
MILANO,Milano,888897178,NA,45.520249899999996,9.078988011685201,1
MILANO,Milano,911360494,NA,45.4578717,9.1325888,1
MILANO,Milano,927515553,SYNGENTA IT,45.5046803,9.1009148,1
MILANO,Milano,933895146,Bayer HealthCare Manufacturing S.r.l.,45.520249899999996,9.078988011685201,1
MILANO,Milano,934739143,NA,45.49557455,9.136474759605598,1
MILANO,Milano,938515450,SeaG,45.4449323,9.1509303,1
MILANO,Milano,938541252,CNA LOMBARDIA,45.4797745,9.1621202,4
MILANO,Milano,939944648,Myriad,45.4654702,9.2002631,1
MILANO,Milano,941373749,PACO,45.4667971,9.1904984,2
MILANO,Milano,948908321,SUBWAY LETTERATURA,45.4684808,9.1760334,1
MILANO,Milano,949744655,TW - TEAMWARE SRL,45.5166845,9.2294734,1
MILANO,Milano,950568476,UNIONCAMERE LOMBARDIA,45.4906193,9.1965711,5
MILANO,Milano,951370472,Proxentia Srl,45.4879797,9.1693646,2
MILANO,Milano,951574366,BRERA,45.4722044,9.1883633,1
MILANO,Milano,953610493,Empatica,45.4555659,9.1759182,1
MILANO,Milano,983090442,mEDRA,45.4544068,9.1985477,1
MILANO,MILANO,886236815,NA,45.439015,9.2150695,1
MILANO,MILANO,890100228,SITTI,45.42731445,9.05862744105653,1
MILANO,MILANO,891341925,AREU,45.520249899999996,9.078988011685201,3
MILANO,MILANO,891373353,PLURIMA,45.488477,8.919071,1
MILANO,MILANO,891375584,PIONIRS,45.4890231,9.1974349,1
MILANO,MILANO,891922567,EDERA SRL,45.5738719,9.184590156679036,1
MILANO,MILANO,892235295,ADVICE PHARMA,45.520249899999996,9.078988011685201,1
MILANO,MILANO,892366730,BioC-CheM,45.5148526,9.2122145,1
MILANO,MILANO,892871615,BTS,45.520249899999996,9.078988011685201,1
MILANO,MILANO,893750435,NA,45.4368952,9.2091928,2
MILANO,MILANO,893851121,NA,45.4674422,9.2269927,1
MILANO,MILANO,893877408,FEDERCHIMICA,45.4838501,9.1567379,1
MILANO,MILANO,894149493,NA,45.4603376,9.1854568,1
MILANO,MILANO,894234271,NA,45.4878993,9.1823252,1
MILANO,MILANO,894283935,NA,45.46581,9.1681713,1
MILANO,MILANO,894562422,NA,45.23337515,7.219837158638304,1
MILANO,MILANO,894586187,NA,45.489355950000004,9.25371163050615,1
MILANO,MILANO,894642835,NA,45.523658850000004,9.217585726571212,1
MILANO,MILANO,895212613,NA,45.453296,9.1595801,2
MILANO,MILANO,895748732,NA,45.5206825,9.210840887582563,1
MILANO,MILANO,895791800,NA,45.4824073,9.1431199,1
MILANO,MILANO,895991038,NA,45.520249899999996,9.078988011685201,1
MILANO,MILANO,896013833,NA,45.4621304,9.2000574,1
MILANO,MILANO,896026346,NA,45.4687795,9.1771063,1
MILANO,MILANO,896559167,NA,45.4649158,9.1505807,4
MILANO,MILANO,896654809,SFERA,45.4683039,9.2122806,1
MILANO,MILANO,897156105,OCMIOTG,45.520249899999996,9.078988011685201,1
MILANO,MILANO,897433137,BOOKABOOK SRL,45.4831851,9.205458,1
MILANO,MILANO,897516460,NA,45.098347450000006,7.693085415330113,1
MILANO,MILANO,897772152,NA,45.4953455,9.178901,1
MILANO,MILANO,898307980,NA,45.520249899999996,9.078988011685201,1
MILANO,MILANO,898651845,SOFINTER,45.4669952,9.202149,1
MILANO,MILANO,898665716,Heaxel,45.5330768,9.3717679,1
MILANO,MILANO,899156245,NA,45.5627583,9.027193003200328,1
MILANO,MILANO,899894706,OFFICINE INNOVAZIONE,45.4525348,9.1657467,1
MILANO,MILANO,900565267,MIRAITEK,45.520249899999996,9.078988011685201,1
MILANO,MILANO,900775078,NSN IT,45.4775467,9.1809666,10
MILANO,MILANO,900826682,NA,45.4511547,9.1799266,1
MILANO,MILANO,900870429,Promos Italia,45.465473700000004,9.182875225514088,6
MILANO,MILANO,901311585,MD,45.4519495,9.162811298669112,1
MILANO,MILANO,901458055,Movieday,45.4757944,9.2087701,1
MILANO,MILANO,901551369,Springa S.r.l.,45.5052042,9.1637191,1
MILANO,MILANO,902160917,ENERVIT,45.520249899999996,9.078988011685201,1
MILANO,MILANO,902630785,copperING srl,45.520249899999996,9.078988011685201,1
MILANO,MILANO,902741947,FRIEM,45.4659463,9.1990518,1
MILANO,MILANO,902790156,NA,45.520249899999996,9.078988011685201,1
MILANO,MILANO,903279812,OCCAM,45.520249899999996,9.078988011685201,1
MILANO,MILANO,903407949,Route220,45.4492081,9.0357929,1
MILANO,MILANO,903560433,NA,45.4692793,9.1932083,1
MILANO,MILANO,903915550,PHONONIC_VIBES,45.5064757,9.1630237,3
MILANO,MILANO,904022347,GFM Integration,45.452016900000004,9.159744246371355,1
MILANO,MILANO,904241664,Userbot Srl,45.4761879,9.1621691,1
MILANO,MILANO,904305296,Skydrive Srl,45.467925,9.1680962,1
MILANO,MILANO,904566905,Latte Sano,45.520249899999996,9.078988011685201,1
MILANO,MILANO,904684857,CUBO,45.520249899999996,9.078988011685201,1
MILANO,MILANO,904695818,NA,45.4769976,9.2074187,1
MILANO,MILANO,905363954,NA,45.5738719,9.184590156679036,1
MILANO,MILANO,905601022,SIP SERVICE,45.4784832,9.2064522,1
MILANO,MILANO,905626242,ETA,45.4741182,9.1486479,3
MILANO,MILANO,905690359,NIREOS,45.5052042,9.1637191,1
MILANO,MILANO,905956430,KARDIA,45.5005355,9.1258969,1
MILANO,MILANO,906039656,LIF,45.5005627,9.2246821,1
MILANO,MILANO,906172546,GFK IT,45.4511645,9.161224,1
MILANO,MILANO,906349086,NA,45.5679224,8.9670613,2
MILANO,MILANO,906843592,NA,45.4792821,9.2416311,1
MILANO,MILANO,906958246,ZEN,45.4654112,9.12812,1
MILANO,MILANO,907085704,IBS,45.4835751,9.2023967,1
MILANO,MILANO,907132555,Gi Group S.P.A.,45.5370791,9.3703716,1
MILANO,MILANO,907438881,NA,45.577298299999995,8.931073881895792,1
MILANO,MILANO,907460221,NA,45.520249899999996,9.078988011685201,1
MILANO,MILANO,907766450,CS,45.4414852,9.099155166800813,1
MILANO,MILANO,908107502,SIA,45.5206825,9.210840887582563,3
MILANO,MILANO,908675631,GFM-NET,45.4417989,9.1738061,1
MILANO,MILANO,908884763,ERM ITALIA,45.490616,9.256928525485566,2
MILANO,MILANO,909048887,APL,45.47691125,9.182951252325402,1
MILANO,MILANO,909105147,MILIS ENERGY,45.4336402,9.239073,1
MILANO,MILANO,909108057,Eucardia S.r.l.,41.6852438,15.3766271,1
MILANO,MILANO,909110676,Basell Poliolefine Italia srl,45.4723975,9.1850452,1
MILANO,MILANO,909527776,FYD,45.520249899999996,9.078988011685201,1
MILANO,MILANO,909653585,Becton Dickinson Italia S. p. A.,45.50633235,9.172112269629675,1
MILANO,MILANO,909687729,Sigma Experience,45.4532488,9.1893188,1
MILANO,MILANO,909784438,One Team Srl,45.4559352,9.1481273,3
MILANO,MILANO,910159731,ACOMEA SGR,45.44948165,8.639403444859909,1
MILANO,MILANO,910161089,Credimi,45.475039,9.1947243,1
MILANO,MILANO,910401261,KJUICER.COM SRL,45.4849323,9.1561743,1
MILANO,MILANO,910468094,TeiaCare,45.455564,9.3812456,1
MILANO,MILANO,910502141,STRANICH,45.4943676,9.4250106,1
MILANO,MILANO,910599335,BLOOMVET,45.4633917,9.1399166,1
MILANO,MILANO,910897804,NA,45.5291785,9.1274249,1
MILANO,MILANO,910922151,SIPCAM OXON SPA,45.4061829,9.0357892,1
MILANO,MILANO,911121389,KENERGIA,45.4633882,9.1971623,2
MILANO,MILANO,911439840,NA,45.520249899999996,9.078988011685201,1
MILANO,MILANO,911455845,Techrain,45.4999659,9.1965393,1
MILANO,MILANO,911665656,COSBI,45.4551486,9.201667,2
MILANO,MILANO,911702516,ITAKA SRL,45.43897685,10.993802437972391,1
MILANO,MILANO,911866640,BiomimX,45.520249899999996,9.078988011685201,2
MILANO,MILANO,911912424,Genny,45.520249899999996,9.078988011685201,1
MILANO,MILANO,912103805,Plume,45.4287024,9.2553674,1
MILANO,MILANO,912174518,GOMN,45.4667971,9.1904984,7
MILANO,MILANO,912217295,ELITE S.p.A.,45.4650319,9.1832284,1
MILANO,MILANO,912333016,MARNI,45.4667971,9.1904984,1
MILANO,MILANO,912548647,algoWatt,45.4658514,9.1667068,12
MILANO,MILANO,912703168,FFS,45.4839036,9.2263579,2
MILANO,MILANO,912820247,EPISKEY SRL,45.6520654,11.3026387,1
MILANO,MILANO,913082244,Yottacle,45.4860973,9.2023775,1
MILANO,MILANO,913094660,NA,45.5058602,9.1651626,1
MILANO,MILANO,913300300,BVI,44.2654781,12.3558944,3
MILANO,MILANO,913383720,Fondazione TOGETHER TO GO Onlus,45.436895,9.1680126,1
MILANO,MILANO,913398561,ENGIE EPS,45.4450954,9.223565618869142,2
MILANO,MILANO,913601485,NA,45.4522144,9.1642118,1
MILANO,MILANO,913724384,LA COMANDA,45.4783436,9.2147952,1
MILANO,MILANO,913860669,Air Srl,45.4803875,9.1989004,1
MILANO,MILANO,914392229,ITALKEM,45.479588,9.2019635,2
MILANO,MILANO,914631625,E2I,45.4676324,9.1801588,1
MILANO,MILANO,914997412,RIMOND SRL,45.4659739,9.1820599,2
MILANO,MILANO,915227108,MOTOAIRBAG,45.4750158,9.1916095,1
MILANO,MILANO,915445940,IT HUB,45.4675737,9.1831431,1
MILANO,MILANO,915568354,FEDERAZIONE ALZHEIMER ITALIA,39.7980823,18.3530335,1
MILANO,MILANO,915750035,H&D,45.4784153,9.2065824,1
MILANO,MILANO,915869539,NA,45.4751524,9.1967459,2
MILANO,MILANO,916265590,PF,45.4342875,10.600251,1
MILANO,MILANO,916475886,MTA ITALY,45.4667971,9.1904984,1
MILANO,MILANO,916488108,AGENFOR,45.4521593,9.1824203,5
MILANO,MILANO,916554068,SINECO,45.4712043,9.2020256,1
MILANO,MILANO,917174286,INWIT,45.4545457,9.2073739,1
MILANO,MILANO,917458981,NEOSURANCE,45.4646083,9.1936225,1
MILANO,MILANO,917570725,coMwork,45.485087,9.2005025,1
MILANO,MILANO,917700220,MODIS,45.4919768,9.2344261,2
MILANO,MILANO,917825641,EDAMB,45.4890021,9.2148727,1
MILANO,MILANO,917849018,IDS-Geo,43.654935,10.4363617,2
MILANO,MILANO,917922350,Smurfit Kappa,45.4671042,9.1744267,1
MILANO,MILANO,918164559,C&T,45.4630775,9.1766735,1
MILANO,MILANO,918215678,SIGLABILE IMQ,45.44800755,9.24999397436748,1
MILANO,MILANO,918557409,Xnext,45.500142,9.2278677,1
MILANO,MILANO,918692142,Aegidea SRL,45.4778993,9.2149595,1
MILANO,MILANO,918737732,Delvecchio snc,45.3708693,9.197296,1
MILANO,MILANO,918990708,SIGMA TAU,45.4667971,9.1904984,1
MILANO,MILANO,919120785,kolzer,45.4667971,9.1904984,1
MILANO,MILANO,919291505,BTO,45.4631727,9.1859906,1
MILANO,MILANO,919377738,NCTM,45.4657432,9.1924079,1
MILANO,MILANO,920017744,Blumine srl,45.4871963,9.2030012,1
MILANO,MILANO,920096702,GARAGERASMUS,45.4527771,9.2035067,1
MILANO,MILANO,920200589,LAND Italia,45.8194765,8.8325971,2
MILANO,MILANO,920454244,SPIN 360 SRL,45.4676381,9.1765622,1
MILANO,MILANO,920670360,A&S,45.4823872,9.2013124,2
MILANO,MILANO,920740200,BLUBRAKE SRL,45.4336402,9.239073,1
MILANO,MILANO,921308717,CIMA1915 S.R.L.,45.4526004,9.2021079,1
MILANO,MILANO,922348363,SPRING – SUSTAINABLE PROCESSES AND RESOURCES FOR INNOVATION AND NATIONAL GROWTH,45.4519495,9.162811298669112,2
MILANO,MILANO,923311476,SAS,45.520249899999996,9.078988011685201,1
MILANO,MILANO,924307666,TANAZA S.P.A.,45.4815028,9.189883,1
MILANO,MILANO,924420283,EUROCLONE DIAGNOSTICA,45.4380269,9.1714135,1
MILANO,MILANO,924528050,DERMOCHIMICA,45.4786851,9.1969409,1
MILANO,MILANO,925306669,FANNABEE,45.4973191,9.2212993,1
MILANO,MILANO,925456631,MW FLY srl,45.4549884,9.393076283199758,1
MILANO,MILANO,925653541,Inventia Srl,45.4667971,9.1904984,1
MILANO,MILANO,925826880,Mapei,45.4667971,9.1904984,1
MILANO,MILANO,926056964,ALLTOX,40.6203657,9.7444742,1
MILANO,MILANO,926188496,GFB Italy,45.4515854,9.1989275,1
MILANO,MILANO,926389771,LUX,45.4667971,9.1904984,1
MILANO,MILANO,926395494,ICSS Spa,45.5327465,9.067313097692033,1
MILANO,MILANO,926519363,JP,45.4667971,9.1904984,1
MILANO,MILANO,927245117,E-NOVIA,45.4253785,9.2313692,2
MILANO,MILANO,927250937,TESI,45.4284302,9.047337,1
MILANO,MILANO,927877654,CAMCOM,45.4656389,9.180496,2
MILANO,MILANO,928776650,DIESEL CENTER,45.4654785,9.1968095,1
MILANO,MILANO,928882186,STUDIO FIFIELD SRL,45.4489113,9.2115762,1
MILANO,MILANO,929009450,FRRB,45.4860424,9.1959558,7
MILANO,MILANO,929454292,CMM,45.4677391,9.2042532,2
MILANO,MILANO,930020287,Citybility,45.5052819,9.1636892,1
MILANO,MILANO,930093037,SMO,45.4778157,9.2001933,1
MILANO,MILANO,931281481,LEAF SPACE,45.4675338,9.1752056,2
MILANO,MILANO,932311233,ASE SPA,45.4732811,9.1955877,1
MILANO,MILANO,932701949,ALPA,45.4814683,9.1453385,1
MILANO,MILANO,932732795,ZH,45.4667971,9.1904984,2
MILANO,MILANO,932953567,MEL SYSTEMS SRL,45.520249899999996,9.078988011685201,1
MILANO,MILANO,932958029,TECHEDGE,45.4749479,9.0896632,3
MILANO,MILANO,933889423,WEMAKE,45.5069094,9.2284411,4
MILANO,MILANO,933990691,EOS,45.4667971,9.1904984,1
MILANO,MILANO,934091086,DIESSE,45.4303322,9.1172118,1
MILANO,MILANO,934331937,Cautha Srl,45.4675725,9.2066158,1
MILANO,MILANO,934390622,DOMPE,45.5463587,8.990671,5
MILANO,MILANO,934657566,ENERGY TEAM,45.4307969,9.04653040315068,2
MILANO,MILANO,934753984,DIANAX,45.4393474,9.2031789,1
